timestamp,gyro_fused_x,gyro_fused_y,baro_height,gps_lon,gps_lat,gps_height,gps_speed,gps_heading,gps_sats,status_flags,pid_correction_roll,pid_correction_pitch,crsf_1,crsf_2,crsf_3,crsf_4,fbw_setpoint_pitch,fbw_setpoint_roll
58300361,2.996189,9.041658,1.639173,7.557796,51.568025,102.895000,0.054000,129.869640,11,5,0.000000,0.000000,173,992,993,992,9.041658,2.996189
58320573,2.974357,8.961289,1.632671,7.557796,51.568025,102.864000,0.045000,129.869640,11,5,0.000000,0.000000,173,992,992,992,8.961289,2.974357
58340355,2.943548,8.865749,1.632671,7.557796,51.568025,102.864000,0.045000,129.869640,11,5,0.000000,0.000000,173,991,992,992,8.865749,2.943548
58360447,2.893352,8.756968,1.635272,7.557796,51.568025,102.864000,0.045000,129.869640,11,5,0.000000,0.000000,173,991,992,992,8.756968,2.893352
58380359,2.816718,8.637288,1.635272,7.557796,51.568025,102.864000,0.045000,129.869640,11,5,0.000000,0.000000,173,991,992,992,8.637288,2.816718
58400567,2.723234,8.524297,1.624868,7.557795,51.568025,102.850000,0.010000,129.869640,11,5,0.000000,0.000000,173,989,992,993,8.524297,2.723234
58420360,2.613592,8.427765,1.624868,7.557795,51.568025,102.850000,0.010000,129.869640,11,5,0.000000,0.000000,173,989,992,992,8.427765,2.613592
58440446,2.507922,8.335477,1.620317,7.557795,51.568025,102.850000,0.010000,129.869640,11,5,0.000000,0.000000,173,991,992,992,8.335477,2.507922
58460355,2.408173,8.242194,1.620317,7.557795,51.568025,102.850000,0.010000,129.869640,11,5,0.000000,0.000000,173,992,992,993,8.242194,2.408173
58480448,2.304986,8.150036,1.617716,7.557795,51.568025,102.850000,0.010000,129.869640,11,5,0.000000,0.000000,173,993,992,992,8.150036,2.304986
58500360,2.206348,8.061508,1.617716,7.557795,51.568025,102.850000,0.010000,129.869640,11,5,0.000000,0.000000,173,992,992,992,8.061508,2.206348
58520576,2.114574,7.976122,1.620967,7.557795,51.568025,102.827000,0.068000,129.869640,11,5,0.000000,0.000000,173,991,992,992,7.976122,2.114574
58540358,2.035589,7.888526,1.620967,7.557795,51.568025,102.827000,0.068000,129.869640,11,5,0.000000,0.000000,173,992,992,992,7.888526,2.035589
58560446,1.947964,7.802669,1.643074,7.557795,51.568025,102.827000,0.068000,129.869640,11,5,0.000000,0.000000,173,992,992,992,7.802669,1.947964
58580357,1.854861,7.721920,1.643074,7.557795,51.568025,102.827000,0.068000,129.869640,11,5,0.000000,0.000000,173,991,992,992,7.721920,1.854861
58600571,1.778990,7.628225,1.647626,7.557795,51.568025,102.832000,0.044000,129.869640,11,5,0.000000,0.000000,173,991,993,992,7.628225,1.778990
58620354,1.723143,7.533548,1.647626,7.557795,51.568025,102.832000,0.044000,129.869640,11,5,0.000000,0.000000,173,992,992,992,7.533548,1.723143
58640410,1.689940,7.546787,1.658679,7.557795,51.568025,102.832000,0.044000,129.869640,11,1,0.000000,0.000000,173,992,993,992,7.546787,1.689940
58660324,1.676709,7.610061,1.658679,7.557795,51.568025,102.832000,0.044000,129.869640,11,1,0.000000,0.000000,173,992,992,993,7.610061,1.676709
58680417,1.669455,7.687742,1.652827,7.557795,51.568025,102.832000,0.044000,129.869640,11,1,0.000000,0.000000,173,991,992,992,7.687742,1.669455
58720535,1.717259,7.822060,1.652827,7.557795,51.568025,102.782000,0.157000,351.380760,11,1,0.000000,0.000000,173,992,992,992,7.822060,1.717259
58740325,1.760141,7.850228,1.652827,7.557795,51.568025,102.782000,0.157000,351.380760,11,1,0.000000,0.000000,173,992,992,992,7.850228,1.760141
58760410,1.827277,7.844839,1.650226,7.557795,51.568025,102.782000,0.157000,351.380760,11,1,0.000000,0.000000,173,992,992,992,7.844839,1.827277
58780323,1.914433,7.813797,1.650226,7.557795,51.568025,102.782000,0.157000,351.380760,11,1,0.000000,0.000000,173,989,992,992,7.813797,1.914433
58800537,2.002316,7.747855,1.654128,7.557794,51.568026,102.763000,0.251000,340.698680,11,1,0.000000,0.000000,173,991,992,992,7.747855,2.002316
58820325,2.107592,7.636731,1.654128,7.557794,51.568026,102.763000,0.251000,340.698680,11,1,0.000000,0.000000,173,991,992,992,7.636731,2.107592
58840417,2.223604,7.519697,1.657379,7.557794,51.568026,102.763000,0.251000,340.698680,11,1,0.000000,0.000000,173,992,993,992,7.519697,2.223604
58860320,2.333982,7.414104,1.657379,7.557794,51.568026,102.763000,0.251000,340.698680,11,1,0.000000,0.000000,173,992,992,992,7.414104,2.333982
58880417,2.447274,7.311445,1.650877,7.557794,51.568026,102.763000,0.251000,340.698680,11,1,0.000000,0.000000,173,992,992,992,7.311445,2.447274
58900355,2.598630,7.164694,1.650877,7.557794,51.568026,102.763000,0.251000,340.698680,11,5,0.000000,0.000000,173,991,992,992,7.164694,2.598630
58920569,2.745210,7.032028,1.650877,7.557794,51.568026,102.732000,0.480000,340.252640,11,5,0.000000,0.000000,173,992,992,992,7.032028,2.745210
58940359,2.849187,6.977765,1.650877,7.557794,51.568026,102.732000,0.480000,340.252640,11,5,0.000000,0.000000,173,992,992,992,6.977765,2.849187
58960451,2.934670,6.979567,1.650226,7.557794,51.568026,102.732000,0.480000,340.252640,11,5,0.000000,0.000000,173,992,992,993,6.979567,2.934670
58980325,3.010698,7.041471,1.650226,7.557794,51.568026,102.732000,0.480000,340.252640,11,1,0.000000,0.000000,173,992,992,993,7.041471,3.010698
59000538,3.076005,7.141495,1.646975,7.557793,51.568027,102.725000,0.512000,340.861840,11,1,0.000000,0.000000,173,992,992,992,7.141495,3.076005
59020323,3.131330,7.268223,1.646975,7.557793,51.568027,102.725000,0.512000,340.861840,11,1,0.000000,0.000000,173,989,992,992,7.268223,3.131330
59040413,3.175032,7.410743,1.661930,7.557793,51.568027,102.725000,0.512000,340.861840,11,1,0.000000,0.000000,173,992,992,993,7.410743,3.175032
59060325,3.212372,7.560940,1.661930,7.557793,51.568027,102.725000,0.512000,340.861840,11,1,0.000000,0.000000,173,989,992,992,7.560940,3.212372
59080413,3.246569,7.716244,1.662580,7.557793,51.568027,102.725000,0.512000,340.861840,11,1,0.000000,0.000000,173,992,992,992,7.716244,3.246569
59100321,3.271362,7.878965,1.662580,7.557793,51.568027,102.725000,0.512000,340.861840,11,1,0.000000,0.000000,173,991,992,992,7.878965,3.271362
59140320,3.320134,8.166751,1.665831,7.557793,51.568027,102.709000,0.433000,339.865120,11,1,0.000000,0.000000,173,989,992,992,8.166751,3.320134
59160411,3.332163,8.262929,1.666482,7.557793,51.568027,102.709000,0.433000,339.865120,11,1,0.000000,0.000000,173,989,992,992,8.262929,3.332163
59180319,3.338039,8.327484,1.666482,7.557793,51.568027,102.709000,0.433000,339.865120,11,1,0.000000,0.000000,173,989,992,993,8.327484,3.338039
59200568,3.317105,8.434156,1.666482,7.557793,51.568027,102.687000,0.404000,338.105840,11,5,0.000000,0.000000,173,989,992,992,8.434156,3.317105
59220359,3.292953,8.600165,1.666482,7.557793,51.568027,102.687000,0.404000,338.105840,11,5,0.000000,0.000000,173,992,992,992,8.600165,3.292953
59240413,3.296189,8.761645,1.666482,7.557793,51.568027,102.687000,0.404000,338.105840,11,1,0.000000,0.000000,173,992,992,992,8.761645,3.296189
59260321,3.308728,8.887186,1.666482,7.557793,51.568027,102.687000,0.404000,338.105840,11,1,0.000000,0.000000,173,992,992,992,8.887186,3.308728
59280413,3.316364,9.013582,1.667132,7.557793,51.568027,102.687000,0.404000,338.105840,11,1,0.000000,0.000000,173,992,992,992,9.013582,3.316364
59300320,3.328017,9.168779,1.667132,7.557793,51.568027,102.687000,0.404000,338.105840,11,1,0.000000,0.000000,173,991,992,992,9.168779,3.328017
59320531,3.337147,9.339855,1.664531,7.557792,51.568028,102.683000,0.403000,336.627120,10,1,0.000000,0.000000,173,989,992,992,9.339855,3.337147
59340325,3.337963,9.506317,1.664531,7.557792,51.568028,102.683000,0.403000,336.627120,10,1,0.000000,0.000000,173,989,992,992,9.506317,3.337963
59360452,3.346338,9.736249,1.670383,7.557792,51.568028,102.683000,0.403000,336.627120,10,5,0.000000,0.000000,173,989,992,992,9.736249,3.346338
59380360,3.345146,9.941582,1.670383,7.557792,51.568028,102.683000,0.403000,336.627120,10,5,0.000000,0.000000,173,991,992,992,9.941582,3.345146
59400572,3.378527,10.123661,1.672984,7.557792,51.568028,102.679000,0.553000,334.552340,11,5,0.000000,0.000000,173,989,992,993,10.123661,3.378527
59420361,3.419412,10.323538,1.672984,7.557792,51.568028,102.679000,0.553000,334.552340,11,5,0.000000,0.000000,173,989,992,992,10.323538,3.419412
59440448,3.430464,10.581478,1.676885,7.557792,51.568028,102.679000,0.553000,334.552340,11,5,0.000000,0.000000,173,989,992,992,10.581478,3.430464
59460354,3.406608,10.873430,1.676885,7.557792,51.568028,102.679000,0.553000,334.552340,11,5,0.000000,0.000000,173,989,992,992,10.873430,3.406608
59480449,3.349450,11.146510,1.672984,7.557792,51.568028,102.679000,0.553000,334.552340,11,5,0.000000,0.000000,173,989,992,992,11.146510,3.349450
59500361,3.291692,11.387477,1.672984,7.557792,51.568028,102.679000,0.553000,334.552340,11,5,0.000000,0.000000,173,991,992,992,11.387477,3.291692
59520569,3.248764,11.650889,1.667132,7.557791,51.568029,102.669000,0.617000,327.902440,11,5,0.000000,0.000000,173,991,993,992,11.650889,3.248764
59560452,3.353835,12.219249,1.658679,7.557791,51.568029,102.669000,0.617000,327.902440,11,5,0.000000,0.000000,173,989,992,993,12.219249,3.353835
59580361,3.479489,12.473980,1.658679,7.557791,51.568029,102.669000,0.617000,327.902440,11,5,0.000000,0.000000,173,992,992,992,12.473980,3.479489
59600573,3.672903,12.720253,1.661930,7.557790,51.568029,102.661000,0.489000,324.141980,11,5,0.000000,0.000000,173,991,992,992,12.720253,3.672903
59620358,3.937764,12.945856,1.661930,7.557790,51.568029,102.661000,0.489000,324.141980,11,5,0.000000,0.000000,173,989,992,992,12.945856,3.937764
59640450,4.247630,13.150010,1.664531,7.557790,51.568029,102.661000,0.489000,324.141980,11,5,0.000000,0.000000,173,992,992,992,13.150010,4.247630
59660356,4.499399,13.359155,1.664531,7.557790,51.568029,102.661000,0.489000,324.141980,11,5,0.000000,0.000000,173,989,992,992,13.359155,4.499399
59680448,4.733841,13.572398,1.680136,7.557790,51.568029,102.661000,0.489000,324.141980,11,5,0.000000,0.000000,173,992,992,992,13.572398,4.733841
59700354,5.006000,13.740064,1.680136,7.557790,51.568029,102.661000,0.489000,324.141980,11,5,0.000000,0.000000,173,989,992,992,13.740064,5.006000
59720573,5.302773,13.913074,1.696391,7.557790,51.568029,102.637000,0.395000,316.603280,11,5,0.000000,0.000000,173,991,992,992,13.913074,5.302773
59740355,5.520254,14.036592,1.696391,7.557790,51.568029,102.637000,0.395000,316.603280,11,5,0.000000,0.000000,173,989,992,992,14.036592,5.520254
59760411,5.557532,14.030100,1.698992,7.557790,51.568029,102.637000,0.395000,316.603280,11,1,0.000000,0.000000,173,991,992,992,14.030100,5.557532
59780322,5.538015,14.014326,1.698992,7.557790,51.568029,102.637000,0.395000,316.603280,11,1,0.000000,0.000000,173,989,992,992,14.014326,5.538015
59800539,5.518267,14.066101,1.693790,7.557789,51.568030,102.602000,0.428000,303.497880,11,1,0.000000,0.000000,173,989,992,992,14.066101,5.518267
59820322,5.505042,14.110241,1.693790,7.557789,51.568030,102.602000,0.428000,303.497880,11,1,0.000000,0.000000,173,989,992,992,14.110241,5.505042
59840417,5.486578,14.093861,1.676885,7.557789,51.568030,102.602000,0.428000,303.497880,11,1,0.000000,0.000000,173,992,992,992,14.093861,5.486578
59860325,5.463417,14.041819,1.676885,7.557789,51.568030,102.602000,0.428000,303.497880,11,5,0.000000,0.000000,173,992,992,992,14.041819,5.463417
59880417,5.622156,13.932602,1.661930,7.557789,51.568030,102.602000,0.428000,303.497880,11,1,0.000000,0.000000,173,989,992,992,13.932602,5.622156
59900325,5.597157,13.878566,1.661930,7.557789,51.568030,102.602000,0.428000,303.497880,11,1,0.000000,0.000000,173,989,992,992,13.878566,5.597157
59920535,5.567488,13.785712,1.661280,7.557788,51.568030,102.577000,0.356000,298.232340,11,5,0.000000,0.000000,173,992,992,992,13.785712,5.567488
59940321,5.762635,13.593747,1.661280,7.557788,51.568030,102.577000,0.356000,298.232340,11,1,0.000000,0.000000,173,992,992,992,13.593747,5.762635
59980320,5.678632,13.421107,1.663881,7.557788,51.568030,102.577000,0.356000,298.232340,11,1,0.000000,0.000000,173,988,992,992,13.421107,5.678632
60000538,5.636007,13.404352,1.660630,7.557788,51.568030,102.538000,0.233000,292.099060,11,1,0.000000,0.000000,173,991,992,992,13.404352,5.636007
60020352,5.619869,13.384720,1.660630,7.557788,51.568030,102.538000,0.233000,292.099060,11,5,0.000000,0.000000,173,989,992,992,13.384720,5.619869
60040451,5.736188,13.300391,1.667782,7.557788,51.568030,102.538000,0.233000,292.099060,11,1,0.000000,0.000000,173,989,992,992,13.300391,5.736188
60060355,5.783651,13.267791,1.667782,7.557788,51.568030,102.538000,0.233000,292.099060,11,5,0.000000,0.000000,173,989,992,992,13.267791,5.783651
60080450,5.813322,13.228791,1.669082,7.557788,51.568030,102.538000,0.233000,292.099060,11,5,0.000000,0.000000,173,991,992,992,13.228791,5.813322
60100357,5.826961,13.227510,1.669082,7.557788,51.568030,102.538000,0.233000,292.099060,11,5,0.000000,0.000000,173,992,992,992,13.227510,5.826961
60120573,5.834113,13.291096,1.666482,7.557787,51.568030,102.494000,0.235000,285.670120,11,5,0.000000,0.000000,173,992,992,992,13.291096,5.834113
60140353,5.834831,13.376845,1.666482,7.557787,51.568030,102.494000,0.235000,285.670120,11,5,0.000000,0.000000,173,991,992,992,13.376845,5.834831
60160446,5.790013,13.469617,1.672984,7.557787,51.568030,102.494000,0.235000,285.670120,11,5,0.000000,0.000000,173,992,992,992,13.469617,5.790013
60180356,5.701842,13.587894,1.672984,7.557787,51.568030,102.494000,0.235000,285.670120,11,5,0.000000,0.000000,173,992,992,992,13.587894,5.701842
60200572,5.646395,13.803720,1.667132,7.557787,51.568030,102.463000,0.303000,288.880720,11,5,0.000000,0.000000,173,992,992,992,13.803720,5.646395
60220359,5.626633,14.102321,1.667132,7.557787,51.568030,102.463000,0.303000,288.880720,11,5,0.000000,0.000000,173,992,992,992,14.102321,5.626633
60240445,5.616673,14.398464,1.666482,7.557787,51.568030,102.463000,0.303000,288.880720,11,5,0.000000,0.000000,173,989,992,993,14.398464,5.616673
60260322,5.583541,14.690969,1.666482,7.557787,51.568030,102.463000,0.303000,288.880720,11,1,0.000000,0.000000,173,992,992,992,14.690969,5.583541
60280411,5.494132,15.044726,1.674284,7.557787,51.568030,102.463000,0.303000,288.880720,11,1,0.000000,0.000000,173,988,992,992,15.044726,5.494132
60300325,5.415823,15.439364,1.674284,7.557787,51.568030,102.463000,0.303000,288.880720,11,1,0.000000,0.000000,173,989,992,992,15.439364,5.415823
60320571,5.456389,15.874876,1.691189,7.557786,51.568030,102.442000,0.214000,280.799540,11,5,0.000000,0.000000,173,992,992,992,15.874876,5.456389
60340324,5.411614,16.215075,1.691189,7.557786,51.568030,102.442000,0.214000,280.799540,11,1,0.000000,0.000000,173,989,992,992,16.215075,5.411614
60360411,5.353276,16.491055,1.707445,7.557786,51.568030,102.442000,0.214000,280.799540,11,1,0.000000,0.000000,173,989,992,992,16.491055,5.353276
60400535,5.251345,17.020525,1.710696,7.557786,51.568030,102.458000,0.218000,273.124400,11,1,0.000000,0.000000,173,989,992,992,17.020525,5.251345
60420319,5.212036,17.252974,1.710696,7.557786,51.568030,102.458000,0.218000,273.124400,11,1,0.000000,0.000000,173,989,992,992,17.252974,5.212036
60440414,5.171332,17.414783,1.726301,7.557786,51.568030,102.458000,0.218000,273.124400,11,1,0.000000,0.000000,173,992,992,992,17.414783,5.171332
60460320,5.125159,17.489742,1.726301,7.557786,51.568030,102.458000,0.218000,273.124400,11,1,0.000000,0.000000,173,989,992,993,17.489742,5.125159
60480412,5.070952,17.529743,1.736054,7.557786,51.568030,102.458000,0.218000,273.124400,11,1,0.000000,0.000000,173,991,992,992,17.529743,5.070952
60500323,5.008864,17.568644,1.736054,7.557786,51.568030,102.458000,0.218000,273.124400,11,1,0.000000,0.000000,173,992,992,992,17.568644,5.008864
60520536,4.942433,17.579304,1.732803,7.557786,51.568030,102.444000,0.217000,247.702360,11,1,0.000000,0.000000,173,989,993,992,17.579304,4.942433
60540355,4.821207,17.538445,1.732803,7.557786,51.568030,102.444000,0.217000,247.702360,11,5,0.000000,0.000000,173,992,992,992,17.538445,4.821207
60560452,4.603819,17.427906,1.736704,7.557786,51.568030,102.444000,0.217000,247.702360,11,5,0.000000,0.000000,173,992,992,993,17.427906,4.603819
60580354,4.303607,17.266449,1.736704,7.557786,51.568030,102.444000,0.217000,247.702360,11,1,0.000000,0.000000,173,989,992,992,17.266449,4.303607
60600541,4.174541,17.283909,1.732803,7.557785,51.568030,102.443000,0.342000,227.145860,11,1,0.000000,0.000000,173,992,992,992,17.283909,4.174541
60620325,4.038329,17.385080,1.732803,7.557785,51.568030,102.443000,0.342000,227.145860,11,1,0.000000,0.000000,173,992,993,992,17.385080,4.038329
60640406,3.881350,17.534033,1.735404,7.557785,51.568030,102.443000,0.342000,227.145860,11,1,0.000000,0.000000,173,992,992,992,17.534033,3.881350
60660323,3.714226,17.738297,1.735404,7.557785,51.568030,102.443000,0.342000,227.145860,11,1,0.000000,0.000000,173,992,992,992,17.738297,3.714226
60680413,3.548067,18.036924,1.736054,7.557785,51.568030,102.443000,0.342000,227.145860,11,1,0.000000,0.000000,173,992,992,992,18.036924,3.548067
60700295,3.368013,18.399258,1.736054,7.557785,51.568030,102.443000,0.342000,227.145860,11,1,0.000000,0.000000,173,992,992,992,18.399258,3.368013
60720538,3.174108,18.718655,1.741255,7.557785,51.568030,102.470000,0.237000,232.857680,11,1,0.000000,0.000000,173,992,992,992,18.718655,3.174108
60740354,2.830156,18.875521,1.741255,7.557785,51.568030,102.470000,0.237000,232.857680,11,5,0.000000,0.000000,173,989,992,993,18.875521,2.830156
60760448,2.319241,18.941845,1.747757,7.557785,51.568030,102.470000,0.237000,232.857680,11,5,0.000000,0.000000,173,989,992,992,18.941845,2.319241
60780360,1.746436,18.990644,1.747757,7.557785,51.568030,102.470000,0.237000,232.857680,11,5,0.000000,0.000000,173,991,992,992,18.990644,1.746436
60820356,0.847326,19.204674,1.759461,7.557784,51.568030,102.455000,0.251000,239.260960,11,5,0.000000,0.000000,173,992,992,992,19.204674,0.847326
60840451,0.469438,19.298546,1.777017,7.557784,51.568030,102.455000,0.251000,239.260960,11,5,0.000000,0.000000,173,991,992,992,19.298546,0.469438
60860325,0.107710,19.306923,1.777017,7.557784,51.568030,102.455000,0.251000,239.260960,11,1,0.000000,0.000000,173,989,992,992,19.306923,0.107710
60880411,-0.170210,19.300081,1.794572,7.557784,51.568030,102.455000,0.251000,239.260960,11,1,0.000000,0.000000,173,989,992,992,19.300081,-0.170210
60900327,-0.429662,19.342930,1.794572,7.557784,51.568030,102.455000,0.251000,239.260960,11,1,0.000000,0.000000,173,991,992,992,19.342930,-0.429662
60920537,-0.695890,19.376541,1.812128,7.557783,51.568030,102.411000,0.436000,249.732760,11,1,0.000000,0.000000,173,992,992,992,19.376541,-0.695890
60940360,-0.973953,19.402534,1.812128,7.557783,51.568030,102.411000,0.436000,249.732760,11,5,0.000000,0.000000,173,991,992,992,19.402534,-0.973953
60960447,-1.297221,19.473446,1.825782,7.557783,51.568030,102.411000,0.436000,249.732760,11,5,0.000000,0.000000,173,991,992,992,19.473446,-1.297221
60980325,-1.630955,19.590586,1.825782,7.557783,51.568030,102.411000,0.436000,249.732760,11,1,0.000000,0.000000,173,992,992,992,19.590586,-1.630955
61000538,-1.830822,19.746538,1.832284,7.557783,51.568030,102.434000,0.540000,253.786780,11,1,0.000000,0.000000,173,989,992,992,19.746538,-1.830822
61020325,-1.998574,19.921991,1.832284,7.557783,51.568030,102.434000,0.540000,253.786780,11,1,0.000000,0.000000,173,992,992,992,19.921991,-1.998574
61040418,-2.138386,20.085999,1.834235,7.557783,51.568030,102.434000,0.540000,253.786780,11,1,0.000000,0.000000,173,992,992,992,20.085999,-2.138386
61060321,-2.250335,20.227221,1.834235,7.557783,51.568030,102.434000,0.540000,253.786780,11,1,0.000000,0.000000,173,992,992,992,20.227221,-2.250335
61080411,-2.350785,20.352057,1.834235,7.557783,51.568030,102.434000,0.540000,253.786780,11,1,0.000000,0.000000,173,992,992,992,20.352057,-2.350785
61100325,-2.410281,20.466488,1.834235,7.557783,51.568030,102.434000,0.540000,253.786780,11,1,0.000000,0.000000,173,991,992,992,20.466488,-2.410281
61120537,-2.429153,20.542103,1.822531,7.557782,51.568030,102.428000,0.518000,255.525660,11,1,0.000000,0.000000,173,992,992,993,20.542103,-2.429153
61140319,-2.447010,20.538919,1.822531,7.557782,51.568030,102.428000,0.518000,255.525660,11,1,0.000000,0.000000,173,989,992,993,20.538919,-2.447010
61160446,-2.410002,20.410622,1.804326,7.557782,51.568030,102.428000,0.518000,255.525660,11,5,0.000000,0.000000,173,989,992,992,20.410622,-2.410002
61180353,-2.259560,20.134525,1.804326,7.557782,51.568030,102.428000,0.518000,255.525660,11,5,0.000000,0.000000,173,991,992,992,20.134525,-2.259560
61200572,-2.210917,19.848835,1.790671,7.557781,51.568029,102.433000,0.528000,254.911040,11,5,0.000000,0.000000,173,989,993,992,19.848835,-2.210917
61240417,-2.080372,19.290874,1.784819,7.557781,51.568029,102.433000,0.528000,254.911040,11,1,0.000000,0.000000,173,992,992,992,19.290874,-2.080372
61260323,-2.040908,18.985872,1.784819,7.557781,51.568029,102.433000,0.528000,254.911040,11,1,0.000000,0.000000,173,992,992,992,18.985872,-2.040908
61280415,-1.979328,18.681870,1.773766,7.557781,51.568029,102.433000,0.528000,254.911040,11,1,0.000000,0.000000,173,989,993,993,18.681870,-1.979328
61300324,-1.929558,18.418152,1.773766,7.557781,51.568029,102.433000,0.528000,254.911040,11,1,0.000000,0.000000,173,992,992,992,18.418152,-1.929558
61320537,-1.878881,18.227224,1.777017,7.557780,51.568029,102.452000,0.473000,251.641980,11,1,0.000000,0.000000,173,992,992,993,18.227224,-1.878881
61340323,-1.827188,18.132311,1.777017,7.557780,51.568029,102.452000,0.473000,251.641980,11,1,0.000000,0.000000,173,989,992,992,18.132311,-1.827188
61360411,-1.804354,18.164680,1.776367,7.557780,51.568029,102.452000,0.473000,251.641980,11,1,0.000000,0.000000,173,989,993,992,18.164680,-1.804354
61380323,-1.781662,18.318983,1.776367,7.557780,51.568029,102.452000,0.473000,251.641980,11,1,0.000000,0.000000,173,992,992,992,18.318983,-1.781662
61400540,-1.778758,18.519085,1.781568,7.557779,51.568029,102.384000,0.613000,254.410340,11,1,0.000000,0.000000,173,992,992,992,18.519085,-1.778758
61420325,-1.818457,18.741863,1.781568,7.557779,51.568029,102.384000,0.613000,254.410340,11,1,0.000000,0.000000,173,992,992,993,18.741863,-1.818457
61440416,-1.857930,18.983681,1.773766,7.557779,51.568029,102.384000,0.613000,254.410340,11,1,0.000000,0.000000,173,992,992,992,18.983681,-1.857930
61460320,-1.922601,19.193455,1.773766,7.557779,51.568029,102.384000,0.613000,254.410340,11,1,0.000000,0.000000,173,992,992,992,19.193455,-1.922601
61480446,-1.846045,19.198849,1.763362,7.557779,51.568029,102.384000,0.613000,254.410340,11,5,0.000000,0.000000,173,992,992,992,19.198849,-1.846045
61500354,-1.530234,18.982412,1.763362,7.557779,51.568029,102.384000,0.613000,254.410340,11,5,0.000000,0.000000,173,992,992,992,18.982412,-1.530234
61520570,-1.257852,18.762804,1.752309,7.557779,51.568029,102.355000,0.361000,253.667840,11,5,0.000000,0.000000,173,991,992,992,18.762804,-1.257852
61540354,-0.984940,18.571512,1.752309,7.557779,51.568029,102.355000,0.361000,253.667840,11,5,0.000000,0.000000,173,992,992,992,18.571512,-0.984940
61560452,-0.725282,18.414267,1.745807,7.557779,51.568029,102.355000,0.361000,253.667840,11,5,0.000000,0.000000,173,991,992,992,18.414267,-0.725282
61580321,-0.753503,18.275326,1.745807,7.557779,51.568029,102.355000,0.361000,253.667840,11,1,0.000000,0.000000,173,989,993,992,18.275326,-0.753503
61600535,-0.928793,18.117203,1.739305,7.557778,51.568029,102.396000,0.282000,268.525620,11,1,0.000000,0.000000,173,992,992,992,18.117203,-0.928793
61620321,-1.115677,17.942200,1.739305,7.557778,51.568029,102.396000,0.282000,268.525620,11,1,0.000000,0.000000,173,992,992,992,17.942200,-1.115677
61660325,-1.517501,17.500200,1.726301,7.557778,51.568029,102.396000,0.282000,268.525620,11,5,0.000000,0.000000,173,992,992,992,17.500200,-1.517501
61680448,-1.362617,17.237923,1.723700,7.557778,51.568029,102.396000,0.282000,268.525620,11,5,0.000000,0.000000,173,991,993,992,17.237923,-1.362617
61700358,-1.242932,17.004631,1.723700,7.557778,51.568029,102.396000,0.282000,268.525620,11,5,0.000000,0.000000,173,992,992,992,17.004631,-1.242932
61720573,-1.191534,16.826509,1.710696,7.557778,51.568029,102.361000,0.295000,256.844300,11,5,0.000000,0.000000,173,992,992,992,16.826509,-1.191534
61740359,-1.214288,16.673903,1.710696,7.557778,51.568029,102.361000,0.295000,256.844300,11,5,0.000000,0.000000,173,992,992,992,16.673903,-1.214288
61760451,-1.254430,16.494425,1.708095,7.557778,51.568029,102.361000,0.295000,256.844300,11,5,0.000000,0.000000,173,992,992,992,16.494425,-1.254430
61780321,-1.319123,16.350662,1.708095,7.557778,51.568029,102.361000,0.295000,256.844300,11,1,0.000000,0.000000,173,989,993,992,16.350662,-1.319123
61800535,-1.489200,16.254259,1.706794,7.557777,51.568029,102.340000,0.218000,254.562140,11,1,0.000000,0.000000,173,992,992,992,16.254259,-1.489200
61820326,-1.639089,16.207775,1.706794,7.557777,51.568029,102.340000,0.218000,254.562140,11,1,0.000000,0.000000,173,992,992,993,16.207775,-1.639089
61840418,-1.774049,16.195091,1.706794,7.557777,51.568029,102.340000,0.218000,254.562140,11,1,0.000000,0.000000,173,992,992,992,16.195091,-1.774049
61860325,-1.891581,16.233694,1.706794,7.557777,51.568029,102.340000,0.218000,254.562140,11,1,0.000000,0.000000,173,991,993,992,16.233694,-1.891581
61880414,-1.979563,16.334257,1.697692,7.557777,51.568029,102.340000,0.218000,254.562140,11,1,0.000000,0.000000,173,992,993,993,16.334257,-1.979563
61900354,-1.875850,16.374359,1.697692,7.557777,51.568029,102.340000,0.218000,254.562140,11,5,0.000000,0.000000,173,989,993,992,16.374359,-1.875850
61920576,-1.680595,16.409946,1.683387,7.557778,51.568029,102.428000,0.094000,254.562140,11,5,0.000000,0.000000,173,991,993,992,16.409946,-1.680595
61940360,-1.452707,16.465412,1.683387,7.557778,51.568029,102.428000,0.094000,254.562140,11,5,0.000000,0.000000,173,989,992,992,16.465412,-1.452707
61960448,-1.244060,16.569967,1.676885,7.557778,51.568029,102.428000,0.094000,254.562140,11,5,0.000000,0.000000,173,991,993,992,16.569967,-1.244060
61980360,-1.072271,16.733681,1.676885,7.557778,51.568029,102.428000,0.094000,254.562140,11,5,0.000000,0.000000,173,992,992,992,16.733681,-1.072271
62000568,-0.921971,16.918325,1.667132,7.557777,51.568029,102.443000,0.110000,254.562140,11,5,0.000000,0.000000,173,991,993,992,16.918325,-0.921971
62020358,-0.793434,17.105658,1.667132,7.557777,51.568029,102.443000,0.110000,254.562140,11,5,0.000000,0.000000,173,992,992,993,17.105658,-0.793434
62040456,-0.669060,17.266928,1.670383,7.557777,51.568029,102.443000,0.110000,254.562140,11,5,0.000000,0.000000,173,992,993,992,17.266928,-0.669060
62080451,-0.395402,17.383268,1.676235,7.557777,51.568029,102.443000,0.110000,254.562140,11,5,0.000000,0.000000,173,992,992,992,17.383268,-0.395402
62100361,-0.249201,17.379259,1.676235,7.557777,51.568029,102.443000,0.110000,254.562140,11,5,0.000000,0.000000,173,992,992,992,17.379259,-0.249201
62120569,-0.115563,17.328609,1.676235,7.557777,51.568029,102.433000,0.108000,254.562140,11,5,0.000000,0.000000,173,989,992,992,17.328609,-0.115563
62140354,0.020462,17.203011,1.676235,7.557777,51.568029,102.433000,0.108000,254.562140,11,5,0.000000,0.000000,173,991,992,992,17.203011,0.020462
62160446,0.125218,17.021366,1.678185,7.557777,51.568029,102.433000,0.108000,254.562140,11,5,0.000000,0.000000,173,992,992,992,17.021366,0.125218
62180357,0.215011,16.789433,1.678185,7.557777,51.568029,102.433000,0.108000,254.562140,11,5,0.000000,0.000000,173,992,992,992,16.789433,0.215011
62200535,0.330255,16.511250,1.689239,7.557777,51.568029,102.447000,0.066000,254.562140,11,1,0.000000,0.000000,173,989,992,992,16.511250,0.330255
62220322,0.472474,16.180254,1.689239,7.557777,51.568029,102.447000,0.066000,254.562140,11,1,0.000000,0.000000,173,991,992,992,16.180254,0.472474
62240423,0.617490,15.826557,1.687938,7.557777,51.568029,102.447000,0.066000,254.562140,11,1,0.000000,0.000000,173,991,992,992,15.826557,0.617490
62260321,0.770550,15.485198,1.687938,7.557777,51.568029,102.447000,0.066000,254.562140,11,5,0.000000,0.000000,173,992,992,992,15.485198,0.770550
62280450,0.921705,15.199288,1.687288,7.557777,51.568029,102.447000,0.066000,254.562140,11,5,0.000000,0.000000,173,989,992,992,15.199288,0.921705
62300324,1.080502,14.943545,1.687288,7.557777,51.568029,102.447000,0.066000,254.562140,11,1,0.000000,0.000000,173,989,992,992,14.943545,1.080502
62320569,1.262650,14.702915,1.676235,7.557777,51.568029,102.466000,0.084000,254.562140,11,5,0.000000,0.000000,173,992,992,992,14.702915,1.262650
62340357,1.440882,14.434474,1.676235,7.557777,51.568029,102.466000,0.084000,254.562140,11,5,0.000000,0.000000,173,992,992,992,14.434474,1.440882
62360450,1.589165,14.139346,1.675584,7.557777,51.568029,102.466000,0.084000,254.562140,11,5,0.000000,0.000000,173,992,992,992,14.139346,1.589165
62380356,1.725506,13.822678,1.675584,7.557777,51.568029,102.466000,0.084000,254.562140,11,5,0.000000,0.000000,173,991,992,992,13.822678,1.725506
62400569,1.849590,13.528515,1.681436,7.557777,51.568029,102.457000,0.063000,254.562140,11,5,0.000000,0.000000,173,989,992,992,13.528515,1.849590
62420357,1.952493,13.205762,1.681436,7.557777,51.568029,102.457000,0.063000,254.562140,11,5,0.000000,0.000000,173,992,992,992,13.205762,1.952493
62440456,2.006448,12.848738,1.690539,7.557777,51.568029,102.457000,0.063000,254.562140,11,5,0.000000,0.000000,173,991,992,992,12.848738,2.006448
62460321,2.028014,12.522400,1.690539,7.557777,51.568029,102.457000,0.063000,254.562140,11,1,0.000000,0.000000,173,988,992,992,12.522400,2.028014
62500359,2.063862,11.932542,1.700292,7.557777,51.568029,102.457000,0.063000,254.562140,11,5,0.000000,0.000000,173,992,992,992,11.932542,2.063862
62520567,1.990887,11.648960,1.703543,7.557777,51.568029,102.470000,0.049000,254.562140,11,5,0.000000,0.000000,173,991,992,992,11.648960,1.990887
62540354,1.864609,11.389620,1.703543,7.557777,51.568029,102.470000,0.049000,254.562140,11,5,0.000000,0.000000,173,992,992,992,11.389620,1.864609
62560451,1.727409,11.173450,1.701593,7.557777,51.568029,102.470000,0.049000,254.562140,11,5,0.000000,0.000000,173,992,992,992,11.173450,1.727409
62580359,1.578384,10.989494,1.701593,7.557777,51.568029,102.470000,0.049000,254.562140,11,5,0.000000,0.000000,173,989,992,993,10.989494,1.578384
62600568,1.394927,10.814712,1.713297,7.557777,51.568029,102.480000,0.071000,254.562140,11,5,0.000000,0.000000,173,991,992,992,10.814712,1.394927
62620358,1.207818,10.670416,1.713297,7.557777,51.568029,102.480000,0.071000,254.562140,11,5,0.000000,0.000000,173,989,992,992,10.670416,1.207818
62640456,1.013183,10.549413,1.720449,7.557777,51.568029,102.480000,0.071000,254.562140,11,5,0.000000,0.000000,173,992,992,992,10.549413,1.013183
62660353,0.772794,10.456617,1.720449,7.557777,51.568029,102.480000,0.071000,254.562140,11,5,0.000000,0.000000,173,992,992,992,10.456617,0.772794
62680450,0.537394,10.411238,1.729552,7.557777,51.568029,102.480000,0.071000,254.562140,11,5,0.000000,0.000000,173,991,992,992,10.411238,0.537394
62700354,0.317822,10.403120,1.729552,7.557777,51.568029,102.480000,0.071000,254.562140,11,5,0.000000,0.000000,173,991,992,992,10.403120,0.317822
62720568,0.101150,10.462673,1.725650,7.557777,51.568029,102.469000,0.057000,254.562140,11,5,0.000000,0.000000,173,992,992,992,10.462673,0.101150
62740358,-0.086545,10.572666,1.725650,7.557777,51.568029,102.469000,0.057000,254.562140,11,5,0.000000,0.000000,173,991,992,992,10.572666,-0.086545
62760448,-0.278701,10.707453,1.728902,7.557777,51.568029,102.469000,0.057000,254.562140,11,5,0.000000,0.000000,173,992,992,992,10.707453,-0.278701
62780359,-0.495565,10.873010,1.728902,7.557777,51.568029,102.469000,0.057000,254.562140,11,5,0.000000,0.000000,173,991,992,993,10.873010,-0.495565
62800569,-0.735138,11.062076,1.737354,7.557777,51.568029,102.455000,0.029000,254.562140,11,5,0.000000,0.000000,173,991,992,992,11.062076,-0.735138
62820353,-0.982852,11.245239,1.737354,7.557777,51.568029,102.455000,0.029000,254.562140,11,5,0.000000,0.000000,173,989,992,992,11.245239,-0.982852
62840451,-1.224957,11.414047,1.735404,7.557777,51.568029,102.455000,0.029000,254.562140,11,5,0.000000,0.000000,173,989,992,992,11.414047,-1.224957
62860353,-1.471408,11.566930,1.735404,7.557777,51.568029,102.455000,0.029000,254.562140,11,5,0.000000,0.000000,173,992,992,992,11.566930,-1.471408
62880452,-1.723587,11.697141,1.725650,7.557777,51.568029,102.455000,0.029000,254.562140,11,5,0.000000,0.000000,173,989,992,992,11.697141,-1.723587
62920571,-2.214243,11.947198,1.710696,7.557777,51.568029,102.470000,0.058000,254.562140,11,5,0.000000,0.000000,173,992,992,993,11.947198,-2.214243
62940358,-2.427642,12.055565,1.710696,7.557777,51.568029,102.470000,0.058000,254.562140,11,1,0.000000,0.000000,173,992,992,992,12.055565,-2.427642
62960416,-2.604217,12.080058,1.704194,7.557777,51.568029,102.470000,0.058000,254.562140,11,1,0.000000,0.000000,173,992,992,992,12.080058,-2.604217
62980325,-2.765899,12.077416,1.704194,7.557777,51.568029,102.470000,0.058000,254.562140,11,1,0.000000,0.000000,173,992,992,993,12.077416,-2.765899
63000571,-2.901060,12.062941,1.693140,7.557777,51.568029,102.477000,0.020000,254.562140,11,5,0.000000,0.000000,173,992,992,992,12.062941,-2.901060
63020354,-2.999708,12.063468,1.693140,7.557777,51.568029,102.477000,0.020000,254.562140,11,5,0.000000,0.000000,173,992,993,992,12.063468,-2.999708
63040454,-3.060825,12.065732,1.682087,7.557777,51.568029,102.477000,0.020000,254.562140,11,5,0.000000,0.000000,173,992,992,992,12.065732,-3.060825
63060325,-3.149007,12.077201,1.682087,7.557777,51.568029,102.477000,0.020000,254.562140,11,1,0.000000,0.000000,173,992,992,992,12.077201,-3.149007
63080418,-3.224402,12.126646,1.671683,7.557777,51.568029,102.477000,0.020000,254.562140,11,1,0.000000,0.000000,173,992,992,992,12.126646,-3.224402
63100325,-3.282350,12.221143,1.671683,7.557777,51.568029,102.477000,0.020000,254.562140,11,1,0.000000,0.000000,173,991,992,992,12.221143,-3.282350
63120540,-3.329009,12.349483,1.661280,7.557777,51.568029,102.451000,0.075000,254.562140,11,1,0.000000,0.000000,173,992,992,993,12.349483,-3.329009
63140321,-3.353499,12.484146,1.661280,7.557777,51.568029,102.451000,0.075000,254.562140,11,1,0.000000,0.000000,173,991,992,992,12.484146,-3.353499
63160418,-3.364908,12.626562,1.655428,7.557777,51.568029,102.451000,0.075000,254.562140,11,1,0.000000,0.000000,173,989,993,992,12.626562,-3.364908
63180361,-3.355849,12.719706,1.655428,7.557777,51.568029,102.451000,0.075000,254.562140,11,5,0.000000,0.000000,173,992,992,992,12.719706,-3.355849
63200575,-3.314293,12.744078,1.653477,7.557777,51.568029,102.464000,0.040000,254.562140,11,5,0.000000,0.000000,173,992,992,992,12.744078,-3.314293
63220360,-3.279908,12.774023,1.653477,7.557777,51.568029,102.464000,0.040000,254.562140,11,5,0.000000,0.000000,173,992,992,992,12.774023,-3.279908
63240454,-3.245791,12.792516,1.661280,7.557777,51.568029,102.464000,0.040000,254.562140,11,5,0.000000,0.000000,173,992,992,992,12.792516,-3.245791
63260355,-3.199436,12.789203,1.661280,7.557777,51.568029,102.464000,0.040000,254.562140,11,5,0.000000,0.000000,173,992,992,992,12.789203,-3.199436
63280452,-3.126525,12.784426,1.665181,7.557777,51.568029,102.464000,0.040000,254.562140,11,5,0.000000,0.000000,173,992,992,992,12.784426,-3.126525
63300361,-3.025156,12.809471,1.665181,7.557777,51.568029,102.464000,0.040000,254.562140,11,5,0.000000,0.000000,173,992,992,992,12.809471,-3.025156
63340357,-2.795192,12.989114,1.667132,7.557777,51.568029,102.490000,0.056000,254.562140,11,5,0.000000,0.000000,173,991,992,992,12.989114,-2.795192
63360447,-2.677109,13.106584,1.676235,7.557777,51.568029,102.490000,0.056000,254.562140,11,5,0.000000,0.000000,173,992,992,993,13.106584,-2.677109
63380356,-2.572231,13.232998,1.676235,7.557777,51.568029,102.490000,0.056000,254.562140,11,5,0.000000,0.000000,173,991,992,992,13.232998,-2.572231
63400570,-2.464828,13.395935,1.704194,7.557777,51.568029,102.478000,0.054000,254.562140,11,5,0.000000,0.000000,173,991,992,992,13.395935,-2.464828
63420360,-2.329226,13.590677,1.704194,7.557777,51.568029,102.478000,0.054000,254.562140,11,5,0.000000,0.000000,173,989,992,992,13.590677,-2.329226
63440459,-2.179122,13.795802,1.717198,7.557777,51.568029,102.478000,0.054000,254.562140,11,5,0.000000,0.000000,173,992,992,992,13.795802,-2.179122
63460360,-2.057112,13.998599,1.717198,7.557777,51.568029,102.478000,0.054000,254.562140,11,5,0.000000,0.000000,173,992,992,992,13.998599,-2.057112
63480447,-1.942914,14.167852,1.727601,7.557777,51.568029,102.478000,0.054000,254.562140,11,5,0.000000,0.000000,173,992,992,993,14.167852,-1.942914
63500359,-1.799628,14.299405,1.727601,7.557777,51.568029,102.478000,0.054000,254.562140,11,5,0.000000,0.000000,173,992,992,993,14.299405,-1.799628
63520574,-1.637034,14.421261,1.734753,7.557777,51.568029,102.473000,0.053000,254.562140,11,5,0.000000,0.000000,173,992,992,992,14.421261,-1.637034
63540355,-1.480823,14.567463,1.734753,7.557777,51.568029,102.473000,0.053000,254.562140,11,5,0.000000,0.000000,173,991,993,992,14.567463,-1.480823
63560450,-1.327932,14.695929,1.723700,7.557777,51.568029,102.473000,0.053000,254.562140,11,5,0.000000,0.000000,173,992,992,993,14.695929,-1.327932
63580358,-1.175632,14.808573,1.723700,7.557777,51.568029,102.473000,0.053000,254.562140,11,5,0.000000,0.000000,173,992,992,992,14.808573,-1.175632
63600572,-1.023386,14.911949,1.719148,7.557777,51.568029,102.470000,0.018000,254.562140,11,5,0.000000,0.000000,173,991,993,992,14.911949,-1.023386
63620359,-0.866853,15.022817,1.719148,7.557777,51.568029,102.470000,0.018000,254.562140,11,5,0.000000,0.000000,173,989,993,992,15.022817,-0.866853
63640453,-0.725206,15.125586,1.715897,7.557777,51.568029,102.470000,0.018000,254.562140,11,5,0.000000,0.000000,173,989,992,992,15.125586,-0.725206
63660356,-0.636468,15.202097,1.715897,7.557777,51.568029,102.470000,0.018000,254.562140,11,5,0.000000,0.000000,173,992,992,992,15.202097,-0.636468
63680448,-0.577877,15.249280,1.708745,7.557777,51.568029,102.470000,0.018000,254.562140,11,5,0.000000,0.000000,173,992,993,992,15.249280,-0.577877
63700351,-0.516754,15.278749,1.708745,7.557777,51.568029,102.470000,0.018000,254.562140,11,5,0.000000,0.000000,173,992,992,992,15.278749,-0.516754
63720572,-0.468075,15.283207,1.709395,7.557776,51.568029,102.452000,0.016000,254.562140,11,5,0.000000,0.000000,173,991,993,992,15.283207,-0.468075
63760448,-0.489246,15.265294,1.700943,7.557776,51.568029,102.452000,0.016000,254.562140,11,5,0.000000,0.000000,173,989,992,992,15.265294,-0.489246
63780356,-0.571011,15.215090,1.700943,7.557776,51.568029,102.452000,0.016000,254.562140,11,5,0.000000,0.000000,173,992,992,992,15.215090,-0.571011
63800572,-0.656236,15.139874,1.695091,7.557776,51.568029,102.451000,0.042000,254.562140,11,5,0.000000,0.000000,173,992,992,992,15.139874,-0.656236
63820360,-0.739090,15.041545,1.695091,7.557776,51.568029,102.451000,0.042000,254.562140,11,5,0.000000,0.000000,173,991,992,992,15.041545,-0.739090
63840453,-0.822110,14.914349,1.697041,7.557776,51.568029,102.451000,0.042000,254.562140,11,5,0.000000,0.000000,173,989,992,992,14.914349,-0.822110
63860358,-0.898072,14.743836,1.697041,7.557776,51.568029,102.451000,0.042000,254.562140,11,5,0.000000,0.000000,173,991,992,992,14.743836,-0.898072
63880450,-0.958135,14.545619,1.689889,7.557776,51.568029,102.451000,0.042000,254.562140,11,5,0.000000,0.000000,173,992,993,992,14.545619,-0.958135
63900359,-1.002607,14.324009,1.689889,7.557776,51.568029,102.451000,0.042000,254.562140,11,5,0.000000,0.000000,173,989,992,992,14.324009,-1.002607
63920572,-1.052587,14.100489,1.678185,7.557776,51.568029,102.469000,0.053000,254.562140,11,5,0.000000,0.000000,173,991,992,993,14.100489,-1.052587
63940358,-1.100292,13.870244,1.678185,7.557776,51.568029,102.469000,0.053000,254.562140,11,5,0.000000,0.000000,173,992,992,992,13.870244,-1.100292
63960447,-1.132399,13.654542,1.665831,7.557776,51.568029,102.469000,0.053000,254.562140,11,5,0.000000,0.000000,173,989,992,995,13.654542,-1.132399
63980358,-1.180365,13.473903,1.665831,7.557776,51.568029,102.469000,0.053000,254.562140,11,5,0.000000,0.000000,173,992,992,992,13.473903,-1.180365
64000574,-1.244614,13.316489,1.666482,7.557776,51.568029,102.446000,0.087000,254.562140,11,5,0.000000,0.000000,173,992,993,993,13.316489,-1.244614
64020354,-1.334294,13.188725,1.666482,7.557776,51.568029,102.446000,0.087000,254.562140,11,5,0.000000,0.000000,173,992,992,992,13.188725,-1.334294
64040456,-1.445346,13.078886,1.659979,7.557776,51.568029,102.446000,0.087000,254.562140,11,5,0.000000,0.000000,173,992,992,992,13.078886,-1.445346
64060352,-1.543287,12.990411,1.659979,7.557776,51.568029,102.446000,0.087000,254.562140,11,5,0.000000,0.000000,173,992,993,993,12.990411,-1.543287
64080447,-1.629612,12.932727,1.645675,7.557776,51.568029,102.446000,0.087000,254.562140,11,5,0.000000,0.000000,173,992,992,993,12.932727,-1.629612
64100353,-1.714377,12.902057,1.645675,7.557776,51.568029,102.446000,0.087000,254.562140,11,5,0.000000,0.000000,173,989,992,993,12.902057,-1.714377
64120570,-1.789430,12.867615,1.645675,7.557776,51.568029,102.455000,0.024000,254.562140,11,5,0.000000,0.000000,173,992,992,992,12.867615,-1.789430
64140356,-1.869302,12.844471,1.645675,7.557776,51.568029,102.455000,0.024000,254.562140,11,5,0.000000,0.000000,173,989,992,992,12.844471,-1.869302
64180368,-2.056651,12.961204,1.658029,7.557776,51.568029,102.455000,0.024000,254.562140,11,5,0.000000,0.000000,173,992,1003,992,12.961204,-2.058867
64200579,-2.169065,13.049660,1.667132,7.557776,51.568029,102.444000,0.080000,254.562140,11,5,0.000000,0.000000,173,992,1001,992,13.049660,-2.170920
64220358,-2.281034,13.140560,1.667132,7.557776,51.568029,102.444000,0.080000,254.562140,11,5,0.000000,0.000000,173,992,993,992,13.140560,-2.281034
64240454,-2.386551,13.248753,1.684037,7.557776,51.568029,102.444000,0.080000,254.562140,11,5,0.000000,0.000000,173,992,992,992,13.248753,-2.386551
64260353,-2.462605,13.359386,1.684037,7.557776,51.568029,102.444000,0.080000,254.562140,11,5,0.000000,0.000000,216,989,992,992,13.359386,-2.462605
64280448,-2.489471,13.474125,1.691189,7.557776,51.568029,102.444000,0.080000,254.562140,11,5,0.000000,0.000000,252,992,992,992,13.474125,-2.489471
64300358,-2.523127,13.562306,1.691189,7.557776,51.568029,102.444000,0.080000,254.562140,11,5,0.000000,0.000000,298,992,992,992,13.562306,-2.523127
64320572,-2.561658,13.610862,1.696391,7.557776,51.568029,102.446000,0.016000,254.562140,11,5,0.000000,0.000000,338,989,992,992,13.610862,-2.561658
64340355,-2.584922,13.653811,1.696391,7.557776,51.568029,102.446000,0.016000,254.562140,11,5,0.000000,0.000000,372,992,992,992,13.653811,-2.584922
64360446,-2.581027,13.672115,1.688589,7.557776,51.568029,102.446000,0.016000,254.562140,11,5,0.000000,0.000000,399,991,992,992,13.672115,-2.581027
64380352,-2.548445,13.670736,1.688589,7.557776,51.568029,102.446000,0.016000,254.562140,11,5,0.000000,0.000000,424,989,992,992,13.670736,-2.548445
64400569,-2.500643,13.669790,1.671033,7.557776,51.568029,102.451000,0.023000,254.562140,11,5,0.000000,0.000000,447,989,992,992,13.669790,-2.500643
64420353,-2.449145,13.688983,1.671033,7.557776,51.568029,102.451000,0.023000,254.562140,11,5,0.000000,0.000000,460,989,992,992,13.688983,-2.449145
64440458,-2.408426,13.730892,1.652177,7.557776,51.568029,102.451000,0.023000,254.562140,11,5,0.000000,0.000000,472,991,992,992,13.730892,-2.408426
64460361,-2.352318,13.779297,1.652177,7.557776,51.568029,102.451000,0.023000,254.562140,11,5,0.000000,0.000000,480,991,992,992,13.779297,-2.352318
64480451,-2.268394,13.849460,1.645675,7.557776,51.568029,102.451000,0.023000,254.562140,11,5,0.000000,0.000000,487,992,992,992,13.849460,-2.268394
64500326,-2.209761,13.876636,1.645675,7.557776,51.568029,102.451000,0.023000,254.562140,11,1,0.000000,0.000000,495,989,992,992,13.876636,-2.209761
64520572,-2.179524,13.897635,1.633971,7.557776,51.568029,102.467000,0.046000,254.562140,11,5,0.000000,0.000000,500,992,993,992,13.897635,-2.179524
64540323,-2.141160,14.021963,1.633971,7.557776,51.568029,102.467000,0.046000,254.562140,11,1,0.000000,0.000000,498,991,993,992,14.021963,-2.141160
64560418,-2.012980,14.125245,1.627469,7.557776,51.568029,102.467000,0.046000,254.562140,11,1,0.000000,0.000000,500,992,992,992,14.125245,-2.012980
64600540,-1.861366,14.163917,1.628770,7.557776,51.568029,102.488000,0.016000,254.562140,11,1,0.000000,0.000000,500,993,992,992,14.163917,-1.861366
64620355,-1.797331,14.412446,1.628770,7.557776,51.568029,102.488000,0.016000,254.562140,11,1,0.000000,0.000000,512,989,992,992,14.412446,-1.797331
64640452,-1.761543,14.545222,1.628770,7.557776,51.568029,102.488000,0.016000,254.562140,11,5,0.000000,0.000000,516,991,992,992,14.545222,-1.761543
64660360,-1.760857,14.652187,1.628770,7.557776,51.568029,102.488000,0.016000,254.562140,11,5,0.000000,0.000000,516,991,992,992,14.652187,-1.760857
64680449,-1.758333,14.726165,1.646975,7.557776,51.568029,102.488000,0.016000,254.562140,11,5,0.000000,0.000000,517,991,992,992,14.726165,-1.758333
64700355,-1.673389,14.824030,1.646975,7.557776,51.568029,102.488000,0.016000,254.562140,11,5,0.000000,0.000000,519,991,992,993,14.824030,-1.673389
64720571,-1.593353,14.876203,1.671683,7.557776,51.568029,102.486000,0.050000,254.562140,12,5,0.000000,0.000000,519,991,992,992,14.876203,-1.593353
64740357,-1.493608,14.952087,1.671683,7.557776,51.568029,102.486000,0.050000,254.562140,12,5,0.000000,0.000000,519,991,992,992,14.952087,-1.493608
64760446,-1.403038,15.036567,1.684687,7.557776,51.568029,102.486000,0.050000,254.562140,12,5,0.000000,0.000000,519,989,992,992,15.036567,-1.403038
64780356,-1.342798,15.084658,1.684687,7.557776,51.568029,102.486000,0.050000,254.562140,12,5,0.000000,0.000000,519,991,992,992,15.084658,-1.342798
64800569,-1.282869,15.059319,1.706144,7.557776,51.568029,102.498000,0.019000,254.562140,12,5,0.000000,0.000000,517,992,992,992,15.059319,-1.282869
64820361,-1.206614,15.004542,1.706144,7.557776,51.568029,102.498000,0.019000,254.562140,12,5,0.000000,0.000000,517,989,992,992,15.004542,-1.206614
64840458,-1.156489,15.017103,1.728251,7.557776,51.568029,102.498000,0.019000,254.562140,12,5,0.000000,0.000000,517,992,992,992,15.017103,-1.156489
64860325,-1.129979,14.971351,1.728251,7.557776,51.568029,102.498000,0.019000,254.562140,12,5,0.000000,0.000000,519,992,992,992,14.971351,-1.129979
64880447,-1.097942,14.922140,1.743206,7.557776,51.568029,102.498000,0.019000,254.562140,12,5,0.000000,0.000000,519,989,992,992,14.922140,-1.097942
64900323,-1.097362,14.828747,1.743206,7.557776,51.568029,102.498000,0.019000,254.562140,12,5,0.000000,0.000000,519,992,992,992,14.828747,-1.097362
64920574,-1.085005,14.743404,1.745157,7.557776,51.568029,102.499000,0.107000,278.622740,12,5,0.000000,0.000000,519,989,992,992,14.743404,-1.085005
64940353,-1.052516,14.670811,1.745157,7.557776,51.568029,102.499000,0.107000,278.622740,12,5,0.000000,0.000000,520,991,992,992,14.670811,-1.052516
64960445,-1.052568,14.568897,1.730202,7.557776,51.568029,102.499000,0.107000,278.622740,12,5,0.000000,0.000000,519,992,992,993,14.568897,-1.052568
64980357,-1.042999,14.434927,1.730202,7.557776,51.568029,102.499000,0.107000,278.622740,12,5,0.000000,0.000000,520,992,993,992,14.434927,-1.042999
65020355,-0.980842,14.157613,1.715897,7.557776,51.568029,102.513000,0.077000,278.622740,12,1,0.000000,0.000000,540,992,992,992,14.157613,-0.980842
65040453,-0.977595,14.052167,1.708095,7.557776,51.568029,102.513000,0.077000,278.622740,12,5,0.000000,0.000000,560,992,992,992,14.052167,-0.977595
65060354,-0.975481,13.959227,1.708095,7.557776,51.568029,102.513000,0.077000,278.622740,12,5,0.000000,0.000000,575,992,992,992,13.959227,-0.975481
65080450,-0.974032,13.844177,1.693790,7.557776,51.568029,102.513000,0.077000,278.622740,12,5,0.000000,0.000000,583,989,992,992,13.844177,-0.974032
65100359,-0.944233,13.698995,1.693790,7.557776,51.568029,102.513000,0.077000,278.622740,12,5,0.000000,0.000000,584,991,992,992,13.698995,-0.944233
65120571,-0.946538,13.592501,1.682737,7.557776,51.568029,102.526000,0.019000,278.622740,12,5,0.000000,0.000000,586,991,992,992,13.592501,-0.946538
65140355,-0.992411,13.530349,1.682737,7.557776,51.568029,102.526000,0.019000,278.622740,12,5,0.000000,0.000000,589,991,992,992,13.530349,-0.992411
65160448,-1.020109,13.501457,1.684037,7.557776,51.568029,102.526000,0.019000,278.622740,12,5,0.000000,0.000000,607,992,992,992,13.501457,-1.020109
65180355,-1.083184,13.481456,1.684037,7.557776,51.568029,102.526000,0.019000,278.622740,12,5,0.000000,0.000000,616,989,992,992,13.481456,-1.083184
65200568,-1.181392,13.465386,1.682737,7.557776,51.568029,102.527000,0.016000,278.622740,12,1,0.000000,0.000000,626,992,992,992,13.465386,-1.181392
65220359,-1.244960,13.433595,1.682737,7.557776,51.568029,102.527000,0.016000,278.622740,12,1,0.000000,0.000000,636,992,992,992,13.433595,-1.244960
65240453,-1.324456,13.464985,1.682087,7.557776,51.568029,102.527000,0.016000,278.622740,12,5,0.000000,0.000000,647,989,993,992,13.464985,-1.324456
65260352,-1.416113,13.499237,1.682087,7.557776,51.568029,102.527000,0.016000,278.622740,12,5,0.000000,0.000000,653,992,992,992,13.499237,-1.416113
65280448,-1.496046,13.516462,1.679486,7.557776,51.568029,102.527000,0.016000,278.622740,12,5,0.000000,0.000000,660,992,992,992,13.516462,-1.496046
65300353,-1.572514,13.492599,1.679486,7.557776,51.568029,102.527000,0.016000,278.622740,12,5,0.000000,0.000000,668,991,993,992,13.492599,-1.572514
65320571,-1.656618,13.489654,1.691189,7.557776,51.568029,102.530000,0.045000,278.622740,12,5,0.000000,0.000000,676,992,993,992,13.489654,-1.656618
65340360,-1.757065,13.518654,1.691189,7.557776,51.568029,102.530000,0.045000,278.622740,12,5,0.000000,0.000000,682,991,992,992,13.518654,-1.757065
65360444,-1.852194,13.559296,1.702243,7.557776,51.568029,102.530000,0.045000,278.622740,12,5,0.000000,0.000000,684,992,993,992,13.559296,-1.852194
65380357,-1.937221,13.599288,1.702243,7.557776,51.568029,102.530000,0.045000,278.622740,12,5,0.000000,0.000000,685,989,992,993,13.599288,-1.937221
65400566,-2.021872,13.611327,1.708745,7.557776,51.568029,102.541000,0.063000,278.622740,12,5,0.000000,0.000000,690,991,992,995,13.611327,-2.021872
65440423,-2.163755,13.591658,1.719799,7.557776,51.568029,102.541000,0.063000,278.622740,12,1,0.000000,0.000000,692,989,992,992,13.591658,-2.163755
65460324,-2.193761,13.658121,1.719799,7.557776,51.568029,102.541000,0.063000,278.622740,12,1,0.000000,0.000000,704,992,992,992,13.658121,-2.193761
65480448,-2.226764,13.732508,1.728251,7.557776,51.568029,102.541000,0.063000,278.622740,12,1,0.000000,0.000000,720,992,992,993,13.732508,-2.226764
65500356,-2.253176,13.741409,1.728251,7.557776,51.568029,102.541000,0.063000,278.622740,12,5,0.000000,0.000000,738,991,992,992,13.741409,-2.253176
65520573,-2.309263,13.734396,1.737354,7.557776,51.568029,102.538000,0.033000,278.622740,12,5,0.000000,0.000000,752,991,992,992,13.734396,-2.309263
65540353,-2.330225,13.785876,1.737354,7.557776,51.568029,102.538000,0.033000,278.622740,12,5,0.000000,0.000000,756,992,992,992,13.785876,-2.330225
65560414,-2.307155,13.883529,1.749708,7.557776,51.568029,102.538000,0.033000,278.622740,12,1,0.000000,0.000000,760,991,992,992,13.883529,-2.307155
65580357,-2.299817,13.916497,1.749708,7.557776,51.568029,102.538000,0.033000,278.622740,12,5,0.000000,0.000000,760,991,992,992,13.916497,-2.299817
65600541,-2.293635,13.892823,1.756860,7.557776,51.568029,102.553000,0.076000,278.622740,12,5,0.000000,0.000000,764,989,992,992,13.892823,-2.293635
65620323,-2.251430,13.861464,1.756860,7.557776,51.568029,102.553000,0.076000,278.622740,12,5,0.000000,0.000000,781,991,992,993,13.861464,-2.251430
65640421,-2.189670,13.908497,1.749708,7.557776,51.568029,102.553000,0.076000,278.622740,12,5,0.000000,0.000000,796,992,992,992,13.908497,-2.189670
65660361,-2.169119,13.902294,1.749708,7.557776,51.568029,102.553000,0.076000,278.622740,12,1,0.000000,0.000000,813,992,992,993,13.902294,-2.169119
65680442,-2.147229,13.909318,1.744506,7.557776,51.568029,102.553000,0.076000,278.622740,12,5,0.000000,0.000000,834,989,992,992,13.909318,-2.147229
65700325,-2.085091,13.900367,1.744506,7.557776,51.568029,102.553000,0.076000,278.622740,12,5,0.000000,0.000000,856,992,992,992,13.900367,-2.085091
65720572,-1.998734,13.913215,1.734103,7.557776,51.568028,102.574000,0.023000,278.622740,12,5,0.000000,0.000000,880,991,992,992,13.913215,-1.998734
65740325,-1.963029,13.944393,1.734103,7.557776,51.568028,102.574000,0.023000,278.622740,12,5,0.000000,0.000000,898,989,992,992,13.944393,-1.963029
65760415,-1.856724,14.043031,1.732803,7.557776,51.568028,102.574000,0.023000,278.622740,12,5,0.000000,0.000000,911,991,992,992,14.043031,-1.856724
65780355,-1.757827,14.203912,1.732803,7.557776,51.568028,102.574000,0.023000,278.622740,12,5,0.000000,0.000000,920,991,992,992,14.203912,-1.757827
65800575,-1.693302,14.319071,1.747757,7.557775,51.568029,102.580000,0.052000,278.622740,12,5,0.000000,0.000000,925,989,992,992,14.319071,-1.693302
65820323,-1.674050,14.316743,1.747757,7.557775,51.568029,102.580000,0.052000,278.622740,12,5,0.000000,0.000000,928,991,992,993,14.316743,-1.674050
65860321,-1.713167,14.282789,1.768564,7.557775,51.568029,102.580000,0.052000,278.622740,12,1,0.000000,0.000000,927,989,992,993,14.282789,-1.713167
65880451,-1.757665,14.052382,1.785470,7.557775,51.568029,102.580000,0.052000,278.622740,12,5,0.000000,0.000000,928,992,992,992,14.052382,-1.757665
65900357,-1.874848,13.762882,1.785470,7.557775,51.568029,102.580000,0.052000,278.622740,12,5,0.000000,0.000000,927,992,992,992,13.762882,-1.874848
65920574,-1.968998,13.504066,1.795223,7.557775,51.568028,102.583000,0.127000,248.726320,12,5,0.000000,0.000000,928,989,992,992,13.504066,-1.968998
65940353,-2.127575,13.211796,1.795223,7.557775,51.568028,102.583000,0.127000,248.726320,12,5,0.000000,0.000000,928,992,992,993,13.211796,-2.127575
65960447,-2.425194,12.906249,1.797823,7.557775,51.568028,102.583000,0.127000,248.726320,12,5,0.000000,0.000000,928,991,992,992,12.906249,-2.425194
65980354,-2.693087,12.607924,1.797823,7.557775,51.568028,102.583000,0.127000,248.726320,12,5,0.000000,0.000000,928,992,992,993,12.607924,-2.693087
66000535,-2.887726,12.217523,1.788070,7.557775,51.568028,102.595000,0.169000,251.325000,12,1,0.000000,0.000000,928,989,992,992,12.217523,-2.887726
66020357,-3.081288,11.809777,1.788070,7.557775,51.568028,102.595000,0.169000,251.325000,12,5,0.000000,0.000000,928,991,993,992,11.809777,-3.081288
66040453,-3.265610,11.434852,1.779618,7.557775,51.568028,102.595000,0.169000,251.325000,12,5,0.000000,0.000000,940,992,992,992,11.434852,-3.265610
66060325,-3.430969,11.192232,1.779618,7.557775,51.568028,102.595000,0.169000,251.325000,12,1,0.000000,0.000000,943,992,992,992,11.192232,-3.430969
66080416,-3.616730,10.954494,1.776367,7.557775,51.568028,102.595000,0.169000,251.325000,12,1,0.000000,0.000000,948,992,992,992,10.954494,-3.616730
66100352,-3.764043,10.587553,1.776367,7.557775,51.568028,102.595000,0.169000,251.325000,12,1,0.000000,0.000000,960,992,992,992,10.587553,-3.764043
66120567,-3.932905,10.243969,1.780918,7.557775,51.568028,102.587000,0.197000,242.457840,12,5,0.000000,0.000000,984,992,992,992,10.243969,-3.932905
66140354,-4.121191,10.017324,1.780918,7.557775,51.568028,102.587000,0.197000,242.457840,12,5,0.000000,0.000000,1009,992,992,992,10.017324,-4.121191
66160448,-4.275043,9.887383,1.793922,7.557775,51.568028,102.587000,0.197000,242.457840,12,5,0.000000,0.000000,1036,992,992,992,9.887383,-4.275043
66180353,-4.397463,9.807597,1.793922,7.557775,51.568028,102.587000,0.197000,242.457840,12,5,0.000000,0.000000,1057,992,992,992,9.807597,-4.397463
66200570,-4.539003,9.754783,1.799774,7.557775,51.568028,102.618000,0.193000,261.533900,12,5,0.000000,0.000000,1070,992,992,992,9.754783,-4.539003
66220355,-4.733202,9.851162,1.799774,7.557775,51.568028,102.618000,0.193000,261.533900,12,5,0.000000,0.000000,1081,989,992,992,9.851162,-4.733202
66240455,-4.936101,10.031343,1.793922,7.557775,51.568028,102.618000,0.193000,261.533900,12,5,0.000000,0.000000,1096,992,992,992,10.031343,-4.936101
66280451,-5.233181,10.808832,1.788070,7.557775,51.568028,102.618000,0.193000,261.533900,12,5,0.000000,0.000000,1140,989,992,992,10.808832,-5.233181
66300357,-5.416412,11.161608,1.788070,7.557775,51.568028,102.618000,0.193000,261.533900,12,5,0.000000,0.000000,1158,989,992,992,11.161608,-5.416412
66320569,-5.624420,11.545969,1.779618,7.557774,51.568028,102.606000,0.116000,261.533900,12,5,0.000000,0.000000,1163,989,992,992,11.545969,-5.624420
66340353,-5.756228,12.031247,1.779618,7.557774,51.568028,102.606000,0.116000,261.533900,12,5,0.000000,0.000000,1164,992,992,993,12.031247,-5.756228
66360447,-5.903055,12.573279,1.766613,7.557774,51.568028,102.606000,0.116000,261.533900,12,5,0.000000,0.000000,1163,989,993,992,12.573279,-5.903055
66380356,-6.148809,13.062121,1.766613,7.557774,51.568028,102.606000,0.116000,261.533900,12,5,0.000000,0.000000,1164,989,995,992,13.062121,-6.148809
66400575,-6.376604,13.463633,1.761412,7.557774,51.568028,102.612000,0.174000,269.808080,12,5,0.000000,0.000000,1164,989,998,992,13.463633,-6.376604
66420354,-6.491994,13.901812,1.761412,7.557774,51.568028,102.612000,0.174000,269.808080,12,5,0.000000,0.000000,1164,991,996,992,13.901812,-6.491994
66440454,-6.496739,14.324566,1.760111,7.557774,51.568028,102.612000,0.174000,269.808080,12,5,0.000000,0.000000,1163,989,992,992,14.324566,-6.496739
66460320,-6.487998,14.381935,1.760111,7.557774,51.568028,102.612000,0.174000,269.808080,12,1,0.000000,0.000000,1163,989,992,992,14.381935,-6.487998
66480417,-6.540536,13.995804,1.775716,7.557774,51.568028,102.612000,0.174000,269.808080,12,1,0.000000,0.000000,1163,989,992,992,13.995804,-6.540536
66500323,-6.459144,13.635156,1.775716,7.557774,51.568028,102.612000,0.174000,269.808080,12,1,0.000000,0.000000,1164,992,992,992,13.635156,-6.459144
66520534,-6.359311,13.222710,1.788070,7.557774,51.568028,102.638000,0.220000,261.382000,12,1,0.000000,0.000000,1163,989,992,993,13.222710,-6.359311
66540325,-6.272708,12.771442,1.788070,7.557774,51.568028,102.638000,0.220000,261.382000,12,5,0.000000,0.000000,1163,989,992,992,12.771442,-6.272708
66560447,-6.044521,12.477110,1.801075,7.557774,51.568028,102.638000,0.220000,261.382000,12,5,0.000000,0.000000,1163,992,993,992,12.477110,-6.044521
66580322,-5.939926,11.795605,1.801075,7.557774,51.568028,102.638000,0.220000,261.382000,12,1,0.000000,0.000000,1163,992,992,992,11.795605,-5.939926
66600573,-5.799050,11.247098,1.819280,7.557773,51.568028,102.627000,0.410000,239.870600,12,5,0.000000,0.000000,1163,992,992,992,11.247098,-5.799050
66620322,-5.656444,10.717426,1.819280,7.557773,51.568028,102.627000,0.410000,239.870600,12,1,0.000000,0.000000,1164,991,992,992,10.717426,-5.656444
66640451,-5.443226,10.270097,1.829033,7.557773,51.568028,102.627000,0.410000,239.870600,12,5,0.000000,0.000000,1163,991,992,992,10.270097,-5.443226
66660354,-5.236423,10.026843,1.829033,7.557773,51.568028,102.627000,0.410000,239.870600,12,1,0.000000,0.000000,1163,992,992,992,10.026843,-5.236423
66700325,-5.011258,9.152490,1.847239,7.557773,51.568028,102.627000,0.410000,239.870600,12,1,0.000000,0.000000,1163,991,992,992,9.152490,-5.011258
66720537,-4.879188,8.802280,1.862194,7.557773,51.568028,102.604000,0.511000,230.499280,12,5,0.000000,0.000000,1163,989,992,992,8.802280,-4.879188
66740359,-4.765982,8.611913,1.862194,7.557773,51.568028,102.604000,0.511000,230.499280,12,5,0.000000,0.000000,1163,992,992,992,8.611913,-4.765982
66760446,-4.690976,8.435943,1.880400,7.557773,51.568028,102.604000,0.511000,230.499280,12,5,0.000000,0.000000,1163,989,992,992,8.435943,-4.690976
66780324,-4.598081,8.345530,1.880400,7.557773,51.568028,102.604000,0.511000,230.499280,12,1,0.000000,0.000000,1163,991,992,992,8.345530,-4.598081
66800568,-4.480758,8.214605,1.882350,7.557772,51.568027,102.632000,0.571000,225.051840,12,5,0.000000,0.000000,1163,991,992,992,8.214605,-4.480758
66820355,-4.361038,8.023461,1.882350,7.557772,51.568027,102.632000,0.571000,225.051840,12,5,0.000000,0.000000,1163,991,992,992,8.023461,-4.361038
66840422,-4.246911,8.000655,1.892754,7.557772,51.568027,102.632000,0.571000,225.051840,12,1,0.000000,0.000000,1163,992,992,992,8.000655,-4.246911
66860320,-4.162939,8.184049,1.892754,7.557772,51.568027,102.632000,0.571000,225.051840,12,1,0.000000,0.000000,1163,991,992,992,8.184049,-4.162939
