timestamp,gyro_fused_x,gyro_fused_y,baro_height,gps_lon,gps_lat,gps_height,gps_speed,gps_heading,gps_sats,status_flags,pid_correction_roll,pid_correction_pitch,crsf_1,crsf_2,crsf_3,crsf_4,fbw_setpoint_pitch,fbw_setpoint_roll
198680519,-0.039315,1.367327,0.000000,0.000000,0.000000,0.000000,0.000000,-426455825961567066744577234367584862695704495073176378976567713940502782496690541833394776127297511196201637406633115940501357061596214079121688363008.000000,3,0,0.000000,-0.039315,988,993,1,0,0.000000,1.367327
4469200121900302336,1.123357,0.362166,0.000000,0.000000,-17.000000,0.000000,0.000000,-33283934798137654157341284455404658859378296403609907266135046070822707247658437124364722239700719818488207730959551294115669266331423196432888110973452288.000000,3,0,0.130653,1.123357,1,0,0,0,0.000000,0.000000
4581463547948079950,0.364116,0.000000,0.000000,0.000000,0.000000,0.000000,-27948209010217259286172613631514041561625689789115687172608341700804790353703111349593360048278569693754270509081107886276696936388769485889318968558092288.000000,0.000000,0,48856,1.161158,0.000000,0,0,0,39758,0.000000,0.000000
4520045496301574388,0.000000,0.000000,0.000000,-17.000000,0.000000,0.000000,-33283934798137654157341284455404658859378296403609907266135046070822707247658437124364722239700719818488207730959551294115669266331423196432888110973452288.000000,0.000000,0,16296,0.000000,0.000000,0,14425,48767,55540,0.146253,0.000000
1052361468,0.000000,0.000000,0.000000,0.000000,0.000000,-27948209010217259286172613631514041561625689789115687172608341700804790353703111349593360048278569693754270509081107886276696936388769485889318968558092288.000000,0.000000,0.000000,195,0,0.000000,0.000000,15893,30202,16286,154,0.000000,0.000000
198780365,-0.274726,1.187503,0.000000,0.000000,0.000000,0.000000,0.000000,-27948209010217259286172613631514041561625689789115687172608341700804790353703111349593360048278569693754270509081107886276696936388769485889318968558092288.000000,3,0,0.000000,-0.274726,988,992,1,0,0.000000,1.187503
4315942833941905408,1.306074,0.346561,0.000000,0.000000,-17.000000,0.000000,0.000000,-2181295950930749302855518418069399723008216033106978882593426379297436942182543335382366436701026374024443181856165153611164501038296150601425755240756169146368.000000,3,0,0.006998,1.306074,1,0,0,0,0.000000,0.000000
4580204173340510942,0.346561,0.000000,0.000000,0.000000,0.000000,0.000000,-27948209010217259286172613631514041561625689789115687172608341700804790353703111349593360048278569693754270509081107886276696936388769485889318968558092288.000000,0.000000,0,48825,1.126203,0.000000,0,0,0,2782,0.000000,0.000000
4516484715011199087,0.000000,0.000000,0.000000,-17.000000,0.000000,0.000000,-33283934798137654157341284455404658859378296403609907266135046070822707247658437124364722239700719818488207730959551294115669266331423196432888110973452288.000000,0.000000,0,16313,0.000000,0.000000,0,38663,48706,20591,0.007810,0.000000
1051576043,0.000000,0.000000,0.000000,0.000000,0.000000,-27948209010217259286172613631514041561625689789115687172608341700804790353703111349593360048278569693754270509081107886276696936388769485889318968558092288.000000,0.000000,994646472819573284310764496293641680200912301594695434880927953786318994025066751066112.000000,235,0,0.000000,0.000000,15359,36672,16279,154,0.000000,0.000000
198880521,0.120974,1.288312,0.000000,0.000000,0.000000,0.000000,0.000000,-27948209010217259286172613631514041561625689789115687172608341700804790353703111349593360048278569693754270509081107886276696936388769485889318968558092288.000000,3,0,0.000000,0.120974,988,993,1,0,0.000000,1.288312
-4702158873157435392,1.088038,0.334857,0.000000,0.000000,-17.000000,0.000000,0.000000,-33283934698241700547229533051193547505996974619654766700855969243329684539646541482132222395850924520456464653845089498230657333677087974695662981172166656.000000,3,0,-0.372218,1.088038,1,0,0,0,0.000000,0.000000
4581801527504641904,0.335507,0.000000,0.000000,0.000000,0.000000,0.000000,-27948209010217259286172613631514041561625689789115687172608341700804790353703111349593360048278569693754270509081107886276696936388769485889318968558092288.000000,0.000000,0,48705,1.170539,0.000000,0,0,0,40816,0.000000,0.000000
4515922486610821672,0.000000,0.000000,0.000000,-17.000000,0.000000,0.000000,-33283934698241700547229533051193547505996974619654766700855969243329684539646541482132222395850924520456464653845089498230657333677087974695662981172166656.000000,0.000000,0,16291,0.000000,0.000000,0,23741,48726,552,-0.202126,0.000000
1051357870,0.000000,0.000000,0.000000,0.000000,0.000000,-27948209010217259286172613631514041561625689789115687172608341700804790353703111349593360048278569693754270509081107886276696936388769485889318968558092288.000000,0.000000,0.000000,250,0,0.000000,0.000000,48718,51033,16292,154,0.000000,0.000000
198980365,-0.068337,1.152209,0.000000,0.000000,0.000000,0.000000,0.000000,-99291984448574266104162026747964523428982239000773145578933813129668771870595063509744307055905813164124646551588810035144294859281790926848.000000,3,0,0.000000,-0.068337,988,992,1,0,0.000000,1.152209
-4760664608425902080,1.117923,0.336807,0.000000,0.000000,-17.000000,0.000000,0.000000,-33283934698241700547229533051193547505996974619654766700855969243329684539646541482132222395850924520456464653845089498230657333677087974695662981172166656.000000,3,0,-0.116563,1.117923,1,0,0,0,0.000000,0.000000
4585172887851135083,0.336807,0.000000,0.000000,0.000000,0.000000,0.000000,-27948209010217259286172613631514041561625689789115687172608341700804790353703111349593360048278569693754270509081107886276696936388769485889318968558092288.000000,0.000000,0,48670,1.264113,0.000000,0,0,0,28779,0.000000,0.000000
4517796582704797146,0.000000,0.000000,0.000000,-17.000000,0.000000,0.000000,-33283934698241700547229533051193547505996974619654766700855969243329684539646541482132222395850924520456464653845089498230657333677087974695662981172166656.000000,0.000000,0,16279,0.000000,0.000000,0,28336,15463,54746,-0.018661,0.000000
1051881486,0.000000,0.000000,0.000000,0.000000,0.000000,-27948209010217259286172613631514041561625689789115687172608341700804790353703111349593360048278569693754270509081107886276696936388769485889318968558092288.000000,0.000000,0.000000,223,0,0.000000,0.000000,48280,52129,16315,154,0.000000,0.000000
199100367,-0.191648,1.239716,0.000000,0.000000,0.000000,0.000000,0.000000,-27948209010217259286172613631514041561625689789115687172608341700804790353703111349593360048278569693754270509081107886276696936388769485889318968558092288.000000,3,0,0.000000,-0.191648,988,992,1,0,0.000000,1.239716
-4742486571662442496,1.229824,0.354363,0.000000,0.000000,-17.000000,0.000000,0.000000,-33283934698241700547229533051193547505996974619654766700855969243329684539646541482132222395850924520456464653845089498230657333677087974695662981172166656.000000,3,0,-0.171194,1.229824,1,0,0,0,0.000000,0.000000
4585883434332631600,0.354363,0.000000,0.000000,0.000000,0.000000,0.000000,-27948209010217259286172613631514041561625689789115687172608341700804790353703111349593360048278569693754270509081107886276696936388769485889318968558092288.000000,0.000000,0,48318,1.283834,0.000000,0,0,0,45616,0.000000,0.000000
4519764382103702417,0.000000,0.000000,0.000000,-17.000000,0.000000,0.000000,-2181295931290405655478667197990261542042621119807126606335037642397688733605740556954319107401405820069018238950845048845804074982992611326113396920785003610112.000000,0.000000,0,16321,0.000000,0.000000,0,5794,48776,2961,-0.117272,0.000000
1052339650,0.000000,0.000000,0.000000,0.000000,0.000000,-27948209010217259286172613631514041561625689789115687172608341700804790353703111349593360048278569693754270509081107886276696936388769485889318968558092288.000000,0.000000,246006311446272417135694895366447328831463738361430131889861407236509911043906984606020737387080298687645418100644428599105378407753391907201399550988776412284181771799458695654166637769167516870901097035133833253825096549816225533764062867857067136321933279232.000000,44,0,0.000000,0.000000,48624,40475,16315,154,0.000000,0.000000
199200458,0.057145,1.192298,0.000000,0.000000,0.000000,0.000000,0.000000,-27948209010217259286172613631514041561625689789115687172608341700804790353703111349593360048278569693754270509081107886276696936388769485889318968558092288.000000,3,0,0.000000,0.057145,988,992,1,0,0.000000,1.192298
-4694971735013851136,1.130036,0.367367,0.000000,0.000000,-17.000000,0.000000,0.000000,-2180437851223232976641145680469514548856057353694460969417252071365038749284618628375851116745943692205071019817241218503909860789796186020949183487219779764224.000000,3,0,-0.422089,1.130036,1,0,0,0,0.000000,0.000000
4582631225000809333,0.376470,0.000000,0.000000,0.000000,0.000000,0.000000,-426455825961567066744577234367584862695704495073176378976567713940502782496690541833394776127297511196201637406633115940501357061596214079121688363008.000000,0.000000,0,48841,1.193567,0.000000,0,0,0,21365,0.000000,0.000000
4521825889092691426,0.000000,0.000000,0.000000,-17.000000,0.000000,0.000000,-33283934698241700547229533051193547505996974619654766700855969243329684539646541482132222395850924520456464653845089498230657333677087974695662981172166656.000000,0.000000,0,16264,0.000000,0.000000,0,65271,48735,58850,-0.059596,0.000000
1053015988,0.000000,0.000000,0.000000,0.000000,0.000000,-27948209010217259286172613631514041561625689789115687172608341700804790353703111349593360048278569693754270509081107886276696936388769485889318968558092288.000000,0.000000,39191066485258739495582803211213116836177854260974927689867324404930562930532401964915294470471057677470020717800991369135822596029816596680341771026342219486499009066287015365002034290763159969980219392.000000,26,0,0.000000,0.000000,48500,10430,16297,154,0.000000,0.000000
199300363,-0.263013,1.189281,0.000000,0.000000,0.000000,0.000000,0.000000,-27948209010217259286172613631514041561625689789115687172608341700804790353703111349593360048278569693754270509081107886276696936388769485889318968558092288.000000,3,0,0.000000,-0.263013,988,992,1,0,0.000000,1.189281
-4746389700502093824,1.102789,0.377120,0.000000,0.000000,-17.000000,0.000000,0.000000,-2181295944383968087063234678043020329353017728673694790507296800330854205990275742573017326934486189372634867554391785356044359019861637509654969134099113967616.000000,3,0,-0.157653,1.102789,1,0,0,0,0.000000,0.000000
4584409023624667356,0.377120,0.000000,0.000000,0.000000,0.000000,0.000000,-27948209010217259286172613631514041561625689789115687172608341700804790353703111349593360048278569693754270509081107886276696936388769485889318968558092288.000000,0.000000,0,48702,1.242911,0.000000,0,0,0,24796,0.000000,0.000000
4520420318096171168,0.000000,0.000000,0.000000,-17.000000,0.000000,0.000000,-2181295950930749302855518418069399723008216033106978882593426379297436942182543335382366436701026374024443181856165153611164501038296150601425755240756169146368.000000,0.000000,0,16276,0.000000,0.000000,0,21155,48625,41120,-0.227452,0.000000
1052492372,0.000000,0.000000,0.000000,0.000000,0.000000,-27948209010217259286172613631514041561625689789115687172608341700804790353703111349593360048278569693754270509081107886276696936388769485889318968558092288.000000,0.000000,0.000000,233,0,0.000000,0.000000,48744,7735,16266,154,0.000000,0.000000
199400459,-0.045351,1.300894,0.000000,0.000000,0.000000,0.000000,0.000000,-27948209010217259286172613631514041561625689789115687172608341700804790353703111349593360048278569693754270509081107886276696936388769485889318968558092288.000000,3,0,0.000000,-0.045351,988,992,1,0,0.000000,1.300894
-4702831228812787712,1.211446,0.353713,0.000000,0.000000,-17.000000,0.000000,0.000000,-33283934798137654157341284455404658859378296403609907266135046070822707247658437124364722239700719818488207730959551294115669266331423196432888110973452288.000000,3,0,-0.367553,1.211446,1,0,0,0,0.000000,0.000000
4577673456191780079,0.354363,0.000000,0.000000,0.000000,0.000000,0.000000,-426455825961567066744577234367584862695704495073176378976567713940502782496690541833394776127297511196201637406633115940501357061596214079121688363008.000000,0.000000,0,15883,1.055962,0.000000,0,0,0,46319,0.000000,0.000000
4518639925303102726,0.000000,0.000000,0.000000,-17.000000,0.000000,0.000000,-33270841135810115979749480292406237109388108051470594441698036077857300004460922783912689315481620903827861107108579257946620464650904433123449667061809152.000000,0.000000,0,16278,0.000000,0.000000,0,31611,48632,52486,-0.106753,0.000000
1052099660,0.000000,0.000000,0.000000,0.000000,0.000000,-27948209010217259286172613631514041561625689789115687172608341700804790353703111349593360048278569693754270509081107886276696936388769485889318968558092288.000000,0.000000,13336028865759708548159703581442515594289516644631816320792515623528074475635264143042864401743108581485859821186866480891777603308238730160726712104661660092190315159028029116926156571823628049457930032271773203963381496074952922582327754752.000000,161,0,0.000000,0.000000,48602,47788,16278,154,0.000000,0.000000
199520456,0.068276,1.156839,0.000000,0.000000,0.000000,0.000000,0.000000,-426455825961567066744577234367584862695704495073176378976567713940502782496690541833394776127297511196201637406633115940501357061596214079121688363008.000000,3,0,0.000000,0.068276,988,992,1,0,0.000000,1.156839
-4746300476851486720,1.136601,0.355013,0.000000,0.000000,-17.000000,0.000000,0.000000,-33283934698241700547229533051193547505996974619654766700855969243329684539646541482132222395850924520456464653845089498230657333677087974695662981172166656.000000,3,0,-0.157962,1.136601,1,0,0,0,0.000000,0.000000
4586332142481815854,0.349812,0.000000,0.000000,0.000000,0.000000,0.000000,-27948209010217259286172613631514041561625689789115687172608341700804790353703111349593360048278569693754270509081107886276696936388769485889318968558092288.000000,0.000000,0,48789,1.296288,0.000000,0,0,0,47406,0.000000,0.000000
4517983993603011275,0.000000,0.000000,0.000000,-17.000000,0.000000,0.000000,-33283934698241700547229533051193547505996974619654766700855969243329684539646541482132222395850924520456464653845089498230657333677087974695662981172166656.000000,0.000000,0,16283,0.000000,0.000000,0,43826,48659,45771,-0.107685,0.000000
1051794217,0.000000,0.000000,0.000000,0.000000,0.000000,-27948209010217259286172613631514041561625689789115687172608341700804790353703111349593360048278569693754270509081107886276696936388769485889318968558092288.000000,0.000000,0.000000,138,0,0.000000,0.000000,48604,45329,16286,154,0.000000,0.000000
199620362,-0.247095,1.157322,0.000000,0.000000,0.000000,0.000000,0.000000,-426455825961567066744577234367584862695704495073176378976567713940502782496690541833394776127297511196201637406633115940501357061596214079121688363008.000000,3,0,0.000000,-0.247095,988,992,1,0,0.000000,1.157322
-4804403541756084224,1.308495,0.352412,0.000000,0.000000,-17.000000,0.000000,0.000000,-33283934798137654157341284455404658859378296403609907266135046070822707247658437124364722239700719818488207730959551294115669266331423196432888110973452288.000000,3,0,-0.051594,1.308495,1,0,0,0,0.000000,0.000000
4576948502220511387,0.352412,0.000000,0.000000,0.000000,0.000000,0.000000,-426455825961567066744577234367584862695704495073176378976567713940502782496690541833394776127297511196201637406633115940501357061596214079121688363008.000000,0.000000,0,48668,1.035840,0.000000,0,0,0,6299,0.000000,0.000000
4517046943408377716,0.000000,0.000000,0.000000,-17.000000,0.000000,0.000000,-2181295950930749302855518418069399723008216033106978882593426379297436942182543335382366436701026374024443181856165153611164501038296150601425755240756169146368.000000,0.000000,0,16286,0.000000,0.000000,0,2426,15652,53108,-0.298363,0.000000
1051706947,0.000000,0.000000,0.000000,0.000000,0.000000,-27948209010217259286172613631514041561625689789115687172608341700804790353703111349593360048278569693754270509081107886276696936388769485889318968558092288.000000,0.000000,0.000000,195,0,0.000000,0.000000,48792,65163,16270,154,0.000000,0.000000
199720457,-0.130083,1.191943,0.000000,0.000000,0.000000,0.000000,0.000000,-426455825961567066744577234367584862695704495073176378976567713940502782496690541833394776127297511196201637406633115940501357061596214079121688363008.000000,3,0,0.000000,-0.130083,988,993,1,0,0.000000,1.191943
-4744965867303862272,1.114725,0.333556,0.000000,0.000000,-17.000000,0.000000,0.000000,-2181295950930749302855518418069399723008216033106978882593426379297436942182543335382366436701026374024443181856165153611164501038296150601425755240756169146368.000000,3,0,-0.162593,1.114725,1,0,0,0,0.000000,0.000000
4579538955926783565,0.317301,0.000000,0.000000,0.000000,0.000000,0.000000,-27948209010217259286172613631514041561625689789115687172608341700804790353703111349593360048278569693754270509081107886276696936388769485889318968558092288.000000,0.000000,0,48916,1.107740,0.000000,0,0,0,17997,0.000000,0.000000
4513298755515380302,0.000000,0.000000,0.000000,-17.000000,0.000000,0.000000,-33283934798137654157341284455404658859378296403609907266135046070822707247658437124364722239700719818488207730959551294115669266331423196432888110973452288.000000,0.000000,0,16308,0.000000,0.000000,0,35859,48776,62030,-0.087050,0.000000
1050223368,0.000000,0.000000,0.000000,0.000000,0.000000,-27948209010217259286172613631514041561625689789115687172608341700804790353703111349593360048278569693754270509081107886276696936388769485889318968558092288.000000,0.000000,-0.000000,71,0,0.000000,0.000000,48562,4618,16279,154,0.000000,0.000000
199820356,0.122889,1.160921,0.000000,0.000000,0.000000,0.000000,0.000000,-27948209010217259286172613631514041561625689789115687172608341700804790353703111349593360048278569693754270509081107886276696936388769485889318968558092288.000000,3,0,0.000000,0.122889,988,992,1,0,0.000000,1.160921
-4712487921611964416,1.297019,0.292593,0.000000,0.000000,-17.000000,0.000000,0.000000,-33310121923000823292301389972979279652596029539978251784450912401767476318029674520803788400439327051745414824432571774683743004383790279577314739194167296.000000,3,0,-0.300546,1.297019,1,0,0,0,0.000000,0.000000
4576985000847814081,0.292593,0.000000,0.000000,0.000000,0.000000,0.000000,-27948209010217259286172613631514041561625689789115687172608341700804790353703111349593360048278569693754270509081107886276696936388769485889318968558092288.000000,0.000000,0,48601,1.036853,0.000000,0,0,0,59785,0.000000,0.000000
4509831677523691914,0.000000,0.000000,0.000000,-17.000000,0.000000,0.000000,-33571993171632514641902445148725487584773360903661696967609575711215167021742048485194450007825399384317485759162776580364480384907461111021581021401317376.000000,0.000000,0,16282,0.000000,0.000000,0,4977,48851,35210,0.097794,0.000000
1050027012,0.000000,0.000000,0.000000,0.000000,0.000000,-27948209010217259286172613631514041561625689789115687172608341700804790353703111349593360048278569693754270509081107886276696936388769485889318968558092288.000000,0.000000,-279968092772225526319680285071055534765205687154331191862498637620473983897520118172609686658950889472.000000,112,0,0.000000,0.000000,15796,39545,16278,154,0.000000,0.000000
199940364,0.081846,1.352462,0.000000,0.000000,0.000000,0.000000,0.000000,-426455825961567066744577234367584862695704495073176378976567713940502782496690541833394776127297511196201637406633115940501357061596214079121688363008.000000,3,0,0.000000,0.073623,1036,992,1,0,0.000000,1.352462
-4718823462230032384,1.404709,0.273087,0.000000,0.000000,-17.000000,0.000000,0.000000,-33454151109748253534581970319639694015293561790004146635188177221963706205071480201218652284501666834660053838534184417808148563671809236871661194408099840.000000,3,0,-0.260812,1.404709,1,0,0,0,0.000000,0.000000
4574985650618657163,0.273087,0.000000,0.000000,0.000000,0.000000,0.000000,-27948209010217259286172613631514041561625689789115687172608341700804790353703111349593360048278569693754270509081107886276696936388769485889318968558092288.000000,0.000000,0,48552,0.990680,0.000000,0,0,0,1839,0.000000,0.000000
4505802375428710849,0.000000,0.000000,0.000000,-17.000000,0.000000,0.000000,-33414870422453499832141812043277762825466962085451629857714377725546552599514624106560053043393755984774243198324653696956037956593258612155021252077027328.000000,0.000000,0,16266,0.000000,0.000000,0,42465,48675,8641,-0.063601,0.000000
1049088867,0.000000,0.000000,0.000000,0.000000,0.000000,-27948209010217259286172613631514041561625689789115687172608341700804790353703111349593360048278569693754270509081107886276696936388769485889318968558092288.000000,0.000000,0.000000,65,0,0.000000,0.000000,48514,28679,16279,154,0.000000,0.000000
200040455,-0.391251,1.082869,0.000000,0.000000,0.000000,0.000000,0.000000,-426455825961567066744577234367584862695704495073176378976567713940502782496690541833394776127297511196201637406633115940501357061596214079121688363008.000000,3,0,0.000000,-0.391251,991,992,1,0,0.000000,1.082869
-4699255930531872768,1.119975,0.258783,0.000000,0.000000,-17.000000,0.000000,0.000000,-33283934798137654157341284455404658859378296403609907266135046070822707247658437124364722239700719818488207730959551294115669266331423196432888110973452288.000000,3,0,-0.392362,1.119975,1,0,0,0,0.000000,0.000000
4584877821449440823,0.253581,0.000000,0.000000,0.000000,0.000000,0.000000,-99291984448574266104162026747964523428982239000773145578933813129668771870595063509744307055905813164124646551588810035144294859281790926848.000000,0.000000,0,15887,1.255923,0.000000,0,0,0,36407,0.000000,0.000000
4504115690235142332,0.000000,0.000000,0.000000,-17.000000,0.000000,0.000000,-33283934798137654157341284455404658859378296403609907266135046070822707247658437124364722239700719818488207730959551294115669266331423196432888110973452288.000000,0.000000,0,16314,0.000000,0.000000,0,30072,48623,41148,-0.200447,0.000000
1048587068,0.000000,0.000000,0.000000,0.000000,0.000000,-27948209010217259286172613631514041561625689789115687172608341700804790353703111349593360048278569693754270509081107886276696936388769485889318968558092288.000000,0.000000,-246006311446272417135694895366447328831463738361430131889861407236509911043906984606020737387080298687645418100644428599105378407753391907201399550988776412284181771799458695654166637769167516870901097035133833253825096549816225533764062867857067136321933279232.000000,65,0,0.000000,0.000000,48717,54747,16281,154,0.000000,0.000000
200140356,-0.262346,1.044325,0.000000,0.000000,0.000000,0.000000,0.000000,-27948209010217259286172613631514041561625689789115687172608341700804790353703111349593360048278569693754270509081107886276696936388769485889318968558092288.000000,3,0,0.000000,-0.262346,988,993,1,0,0.000000,1.044325
-4728004985617383424,1.216344,0.237326,0.000000,0.000000,-17.000000,0.000000,0.000000,-2181295950930749302855518418069399723008216033106978882593426379297436942182543335382366436701026374024443181856165153611164501038296150601425755240756169146368.000000,3,0,-0.221438,1.216344,1,0,0,0,0.000000,0.000000
4583850727257327297,0.237326,0.000000,0.000000,0.000000,0.000000,0.000000,-426455825961567066744577234367584862695704495073176378976567713940502782496690541833394776127297511196201637406633115940501357061596214079121688363008.000000,0.000000,0,15766,1.227415,0.000000,0,0,0,50881,0.000000,0.000000
4496760550149176427,0.000000,0.000000,0.000000,-17.000000,0.000000,0.000000,-33270841235706069589861231696617348462769429835425735006977112905350322712472818426145189159331416201859604184223041053831632397305239654860674796863094784.000000,0.000000,0,16289,0.000000,0.000000,0,52593,15771,48235,-0.397450,0.000000
1046983653,0.000000,0.000000,0.000000,0.000000,0.000000,-27948209010217259286172613631514041561625689789115687172608341700804790353703111349593360048278569693754270509081107886276696936388769485889318968558092288.000000,0.000000,-0.000000,126,0,0.000000,0.000000,48843,9118,16292,154,0.000000,0.000000
200240448,-0.193832,1.183689,0.000000,0.000000,0.000000,0.000000,0.000000,-27948209010217259286172613631514041561625689789115687172608341700804790353703111349593360048278569693754270509081107886276696936388769485889318968558092288.000000,3,0,0.000000,-0.193832,986,992,1,0,0.000000,1.183689
-4714058591152111616,1.212693,0.231474,0.000000,0.000000,-17.000000,0.000000,0.000000,-33270840936018208759525977483984014402625464483560313311139882422871254588437131499447689627782030307764374952879655666176596599342233989648999407459237888.000000,3,0,-0.289648,1.212693,1,0,0,0,0.000000,0.000000
4576334729919069163,0.238626,0.000000,0.000000,0.000000,0.000000,0.000000,-426455825961567066744577234367584862695704495073176378976567713940502782496690541833394776127297511196201637406633115940501357061596214079121688363008.000000,0.000000,0,48667,1.018805,0.000000,0,0,0,64491,0.000000,0.000000
4500321327147025655,0.000000,0.000000,0.000000,-17.000000,0.000000,0.000000,-33270841235706069589861231696617348462769429835425735006977112905350322712472818426145189159331416201859604184223041053831632397305239654860674796863094784.000000,0.000000,0,16310,0.000000,0.000000,0,1921,48858,34039,-0.048121,0.000000
1048249058,0.000000,0.000000,0.000000,0.000000,0.000000,-27948209010217259286172613631514041561625689789115687172608341700804790353703111349593360048278569693754270509081107886276696936388769485889318968558092288.000000,0.000000,409173825987017733751648712103449894027080255755383098685411421012016724550584319360408761540738019643860835515945008876152157068235674131666065948672.000000,26,0,0.000000,0.000000,48453,46807,16266,154,0.000000,0.000000
200360519,-0.336582,1.158657,0.000000,0.000000,0.000000,0.000000,0.000000,-27948209010217259286172613631514041561625689789115687172608341700804790353703111349593360048278569693754270509081107886276696936388769485889318968558092288.000000,3,0,0.000000,-0.336582,986,992,1,0,0.000000,1.158657
-4735974460643868672,0.885866,0.255532,0.000000,0.000000,-17.000000,0.000000,0.000000,-33270841235706069589861231696617348462769429835425735006977112905350322712472818426145189159331416201859604184223041053831632397305239654860674796863094784.000000,3,0,-0.193788,0.885866,1,0,0,0,0.000000,0.000000
4585442738475760295,0.261383,0.000000,0.000000,0.000000,0.000000,0.000000,-426455825961567066744577234367584862695704495073176378976567713940502782496690541833394776127297511196201637406633115940501357061596214079121688363008.000000,0.000000,0,15549,1.271603,0.000000,0,0,0,64167,0.000000,0.000000
4505240147031730179,0.000000,0.000000,0.000000,-17.000000,0.000000,0.000000,-33270841235706069589861231696617348462769429835425735006977112905350322712472818426145189159331416201859604184223041053831632397305239654860674796863094784.000000,0.000000,0,16295,0.000000,0.000000,0,61366,48603,43011,-0.214752,0.000000
1049067049,0.000000,0.000000,0.000000,0.000000,0.000000,-27948209010217259286172613631514041561625689789115687172608341700804790353703111349593360048278569693754270509081107886276696936388769485889318968558092288.000000,0.000000,-9124881235244390437282343211400582649786457014497119861158385035798550334417354773011825622634742799557284619147188814621377409442750875996505322639444428376503989348720529900165748384493207552.000000,231,0,0.000000,0.000000,48731,56597,16263,154,0.000000,0.000000
200460363,-0.343516,1.391242,0.000000,0.000000,0.000000,0.000000,0.000000,-99291984448574266104162026747964523428982239000773145578933813129668771870595063509744307055905813164124646551588810035144294859281790926848.000000,3,0,0.000000,-0.343516,986,992,1,0,0.000000,1.391242
-4737948805570232320,1.193519,0.269186,0.000000,0.000000,-17.000000,0.000000,0.000000,-33270841135810115979749480292406237109388108051470594441698036077857300004460922783912689315481620903827861107108579257946620464650904433123449667061809152.000000,3,0,-0.186938,1.193519,1,0,0,0,0.000000,0.000000
4583939171389091797,0.269186,0.000000,0.000000,0.000000,0.000000,0.000000,-426455825961567066744577234367584862695704495073176378976567713940502782496690541833394776127297511196201637406633115940501357061596214079121688363008.000000,0.000000,0,48805,1.229870,0.000000,0,0,0,12245,0.000000,0.000000
4507957581428684279,0.000000,0.000000,0.000000,-17.000000,0.000000,0.000000,-33270841235706069589861231696617348462769429835425735006977112905350322712472818426145189159331416201859604184223041053831632397305239654860674796863094784.000000,0.000000,0,16277,0.000000,0.000000,0,46304,48676,62967,-0.100255,0.000000
1049590665,0.000000,0.000000,0.000000,0.000000,0.000000,-27948209010217259286172613631514041561625689789115687172608341700804790353703111349593360048278569693754270509081107886276696936388769485889318968558092288.000000,0.000000,-0.000000,82,0,0.000000,0.000000,48589,53416,16300,154,0.000000,0.000000
200560453,-0.239740,1.151334,0.000000,0.000000,0.000000,0.000000,0.000000,-27948209010217259286172613631514041561625689789115687172608341700804790353703111349593360048278569693754270509081107886276696936388769485889318968558092288.000000,3,0,0.000000,-0.239740,986,993,1,0,0.000000,1.151334
-4733529456021340160,1.116757,0.291293,0.000000,0.000000,-17.000000,0.000000,0.000000,-33270841235706069589861231696617348462769429835425735006977112905350322712472818426145189159331416201859604184223041053831632397305239654860674796863094784.000000,3,0,-0.202271,1.116757,1,0,0,0,0.000000,0.000000
4583103817424057004,0.299095,0.000000,0.000000,0.000000,0.000000,0.000000,-426455825961567066744577234367584862695704495073176378976567713940502782496690541833394776127297511196201637406633115940501357061596214079121688363008.000000,0.000000,0,48716,1.206684,0.000000,0,0,0,12972,0.000000,0.000000
4510675020123035809,0.000000,0.000000,0.000000,-17.000000,0.000000,0.000000,-33270841235706069589861231696617348462769429835425735006977112905350322712472818426145189159331416201859604184223041053831632397305239654860674796863094784.000000,0.000000,0,16297,0.000000,0.000000,0,32052,48678,22689,-0.047571,0.000000
1050201551,0.000000,0.000000,0.000000,0.000000,0.000000,-426455825961567066744577234367584862695704495073176378976567713940502782496690541833394776127297511196201637406633115940501357061596214079121688363008.000000,0.000000,15177100720513508366558296147058741458143803430094840009779784451085189728165691392.000000,218,0,0.000000,0.000000,48450,61026,16296,154,0.000000,0.000000
200660361,-0.231040,1.151049,0.000000,0.000000,0.000000,0.000000,0.000000,-27948209010217259286172613631514041561625689789115687172608341700804790353703111349593360048278569693754270509081107886276696936388769485889318968558092288.000000,3,0,0.000000,-0.231040,986,992,1,0,0.000000,1.151049
-4730324787648266240,1.327694,0.297795,0.000000,0.000000,-17.000000,0.000000,0.000000,-33270841235706069589861231696617348462769429835425735006977112905350322712472818426145189159331416201859604184223041053831632397305239654860674796863094784.000000,3,0,-0.213389,1.327694,1,0,0,0,0.000000,0.000000
4579398216269311553,0.297795,0.000000,0.000000,0.000000,0.000000,0.000000,-27948209010217259286172613631514041561625689789115687172608341700804790353703111349593360048278569693754270509081107886276696936388769485889318968558092288.000000,0.000000,0,15818,1.103833,0.000000,0,0,0,11841,0.000000,0.000000
4511612070318925074,0.000000,0.000000,0.000000,-17.000000,0.000000,0.000000,-33270841235706069589861231696617348462769429835425735006977112905350322712472818426145189159331416201859604184223041053831632397305239654860674796863094784.000000,0.000000,0,16313,0.000000,0.000000,0,56421,48822,25874,-0.391904,0.000000
1050441542,0.000000,0.000000,0.000000,0.000000,0.000000,-99291984448574266104162026747964523428982239000773145578933813129668771870595063509744307055905813164124646551588810035144294859281790926848.000000,0.000000,-0.000000,167,0,0.000000,0.000000,48840,60945,16310,154,0.000000,0.000000
200780362,-0.117407,1.395320,0.000000,0.000000,0.000000,0.000000,0.000000,-27948209010217259286172613631514041561625689789115687172608341700804790353703111349593360048278569693754270509081107886276696936388769485889318968558092288.000000,3,0,0.000000,-0.117407,986,992,1,0,0.000000,1.395320
-4684194145944731648,1.006648,0.267885,0.000000,0.000000,-17.000000,0.000000,0.000000,-33270841135810115979749480292406237109388108051470594441698036077857300004460922783912689315481620903827861107108579257946620464650904433123449667061809152.000000,3,0,-0.496874,1.006648,1,0,0,0,0.000000,0.000000
4580913450661156428,0.267885,0.000000,0.000000,0.000000,0.000000,0.000000,-27948209010217259286172613631514041561625689789115687172608341700804790353703111349593360048278569693754270509081107886276696936388769485889318968558092288.000000,0.000000,0,15735,1.145890,0.000000,0,0,0,38476,0.000000,0.000000
4505802375426749990,0.000000,0.000000,0.000000,-17.000000,0.000000,0.000000,-2180437851223232976641145680469514548856057353694460969417252071365038749284618628375851116745943692205071019817241218503909860789796186020949183487219779764224.000000,0.000000,0,16236,0.000000,0.000000,0,57842,48608,13862,-0.192483,0.000000
1049088867,0.000000,0.000000,0.000000,0.000000,0.000000,-426455825961567066744577234367584862695704495073176378976567713940502782496690541833394776127297511196201637406633115940501357061596214079121688363008.000000,0.000000,231584178474632390847141970017375815706539969331281128078915168015826259279872.000000,26,0,0.000000,0.000000,48709,62926,16289,154,0.000000,0.000000
200880520,-0.152745,1.303413,0.000000,0.000000,0.000000,0.000000,0.000000,-27948209010217259286172613631514041561625689789115687172608341700804790353703111349593360048278569693754270509081107886276696936388769485889318968558092288.000000,3,0,0.000000,-0.152745,986,992,1,0,0.000000,1.303413
-4716188813326548992,1.313086,0.267235,0.000000,0.000000,-17.000000,0.000000,0.000000,-2180437851223232976641145680469514548856057353694460969417252071365038749284618628375851116745943692205071019817241218503909860789796186020949183487219779764224.000000,3,0,-0.274866,1.313086,1,0,0,0,0.000000,0.000000
4588710197137659330,0.256182,0.000000,0.000000,0.000000,0.000000,0.000000,-27948209010217259286172613631514041561625689789115687172608341700804790353703111349593360048278569693754270509081107886276696936388769485889318968558092288.000000,0.000000,0,48538,1.362293,0.000000,0,0,0,21954,0.000000,0.000000
4504490507732791070,0.000000,0.000000,0.000000,-17.000000,0.000000,0.000000,-33270841235706069589861231696617348462769429835425735006977112905350322712472818426145189159331416201859604184223041053831632397305239654860674796863094784.000000,0.000000,0,16264,0.000000,0.000000,0,37160,48895,12062,0.015584,0.000000
1048467232,0.000000,0.000000,0.000000,0.000000,0.000000,-27948209010217259286172613631514041561625689789115687172608341700804790353703111349593360048278569693754270509081107886276696936388769485889318968558092288.000000,0.000000,-0.000000,83,0,0.000000,0.000000,15487,32615,16295,154,0.000000,0.000000
200980365,-0.080099,1.024884,0.000000,0.000000,0.000000,0.000000,0.000000,-426455825961567066744577234367584862695704495073176378976567713940502782496690541833394776127297511196201637406633115940501357061596214079121688363008.000000,3,0,0.000000,-0.080099,986,993,1,0,0.000000,1.024884
-4764560221072785408,1.036016,0.249680,0.000000,0.000000,-17.000000,0.000000,0.000000,-33270841135810115979749480292406237109388108051470594441698036077857300004460922783912689315481620903827861107108579257946620464650904433123449667061809152.000000,3,0,-0.109806,1.036016,1,0,0,0,0.000000,0.000000
4577285184705542990,0.249680,0.000000,0.000000,0.000000,0.000000,0.000000,-27948209010217259286172613631514041561625689789115687172608341700804790353703111349593360048278569693754270509081107886276696936388769485889318968558092288.000000,0.000000,0,48648,1.045185,0.000000,0,0,0,15182,0.000000,0.000000
4502570245036206685,0.000000,0.000000,0.000000,-17.000000,0.000000,0.000000,-33270841235706069589861231696617348462769429835425735006977112905350322712472818426145189159331416201859604184223041053831632397305239654860674796863094784.000000,0.000000,0,16288,0.000000,0.000000,0,58130,48855,27229,-0.255822,0.000000
1048336328,0.000000,0.000000,0.000000,0.000000,0.000000,-27948209010217259286172613631514041561625689789115687172608341700804790353703111349593360048278569693754270509081107886276696936388769485889318968558092288.000000,0.000000,0.000000,251,0,0.000000,0.000000,48770,50786,16274,154,0.000000,0.000000
201080516,-0.256437,1.264734,0.000000,0.000000,0.000000,0.000000,0.000000,-426455825961567066744577234367584862695704495073176378976567713940502782496690541833394776127297511196201637406633115940501357061596214079121688363008.000000,3,0,0.000000,-0.256437,984,993,1,0,0.000000,1.264734
-4714314743001645056,1.306753,0.247079,0.000000,0.000000,-17.000000,0.000000,0.000000,-33270841235706069589861231696617348462769429835425735006977112905350322712472818426145189159331416201859604184223041053831632397305239654860674796863094784.000000,3,0,-0.287870,1.306753,1,0,0,0,0.000000,0.000000
4582892526510602574,0.249029,0.000000,0.000000,0.000000,0.000000,0.000000,-426455825961567066744577234367584862695704495073176378976567713940502782496690541833394776127297511196201637406633115940501357061596214079121688363008.000000,0.000000,0,48756,1.200820,0.000000,0,0,0,63822,0.000000,0.000000
4503319880037705054,0.000000,0.000000,0.000000,-17.000000,0.000000,0.000000,-33270841135810115979749480292406237109388108051470594441698036077857300004460922783912689315481620903827861107108579257946620464650904433123449667061809152.000000,0.000000,0,16282,0.000000,0.000000,0,15484,15987,9566,-0.296297,0.000000
1048336328,0.000000,0.000000,0.000000,0.000000,0.000000,-27948209010217259286172613631514041561625689789115687172608341700804790353703111349593360048278569693754270509081107886276696936388769485889318968558092288.000000,0.000000,53919893334301279589334030174039261347274288845081144962207220498432.000000,180,0,0.000000,0.000000,48791,54593,16298,154,0.000000,0.000000
201200453,-0.008532,1.000486,0.000000,0.000000,0.000000,0.000000,0.000000,-27948209010217259286172613631514041561625689789115687172608341700804790353703111349593360048278569693754270509081107886276696936388769485889318968558092288.000000,3,0,0.000000,-0.008532,986,992,1,0,0.000000,1.000486
-4712023098776354816,1.170511,0.234725,0.000000,0.000000,-17.000000,0.000000,0.000000,-33270841135810115979749480292406237109388108051470594441698036077857300004460922783912689315481620903827861107108579257946620464650904433123449667061809152.000000,3,0,-0.303772,1.170511,1,0,0,0,0.000000,0.000000
4593123731314198095,0.228223,0.000000,0.000000,0.000000,0.000000,0.000000,-27948209010217259286172613631514041561625689789115687172608341700804790353703111349593360048278569693754270509081107886276696936388769485889318968558092288.000000,0.000000,0,48742,1.484793,0.000000,0,0,0,17999,0.000000,0.000000
4497322778549000826,0.000000,0.000000,0.000000,-17.000000,0.000000,0.000000,-33270841235706069589861231696617348462769429835425735006977112905350322712472818426145189159331416201859604184223041053831632397305239654860674796863094784.000000,0.000000,0,16303,0.000000,0.000000,0,17346,48829,39546,0.109723,0.000000
1047419999,0.000000,0.000000,0.000000,0.000000,0.000000,-27948209010217259286172613631514041561625689789115687172608341700804790353703111349593360048278569693754270509081107886276696936388769485889318968558092288.000000,0.000000,0.000000,182,0,0.000000,0.000000,15840,48590,16276,154,0.000000,0.000000
201300355,-0.396725,1.229446,0.000000,0.000000,0.000000,0.000000,0.000000,-27948209010217259286172613631514041561625689789115687172608341700804790353703111349593360048278569693754270509081107886276696936388769485889318968558092288.000000,3,0,0.000000,-0.396725,986,992,1,0,0.000000,1.229446
-4714308614083313664,1.286311,0.243828,0.000000,0.000000,-17.000000,0.000000,0.000000,-2180437851223232976641145680469514548856057353694460969417252071365038749284618628375851116745943692205071019817241218503909860789796186020949183487219779764224.000000,3,0,-0.287913,1.286311,1,0,0,0,0.000000,0.000000
4575601458750043983,0.243828,0.000000,0.000000,0.000000,0.000000,0.000000,-27948209010217259286172613631514041561625689789115687172608341700804790353703111349593360048278569693754270509081107886276696936388769485889318968558092288.000000,0.000000,0,48782,0.999226,0.000000,0,0,0,14159,0.000000,0.000000
4502945062535093572,0.000000,0.000000,0.000000,-17.000000,0.000000,0.000000,-33270841235706069589861231696617348462769429835425735006977112905350322712472818426145189159331416201859604184223041053831632397305239654860674796863094784.000000,0.000000,0,16256,0.000000,0.000000,0,20658,48768,56644,0.106975,0.000000
1048423597,0.000000,0.000000,0.000000,0.000000,0.000000,-27948209010217259286172613631514041561625689789115687172608341700804790353703111349593360048278569693754270509081107886276696936388769485889318968558092288.000000,0.000000,-0.000000,21,0,0.000000,0.000000,15835,3463,16318,154,0.000000,0.000000
201400458,-0.342690,1.283639,0.000000,0.000000,0.000000,0.000000,0.000000,-426455825961567066744577234367584862695704495073176378976567713940502782496690541833394776127297511196201637406633115940501357061596214079121688363008.000000,3,0,0.000000,-0.342690,986,992,1,0,0.000000,1.283639
-4731346822360989696,1.158797,0.246429,0.000000,0.000000,-17.000000,0.000000,0.000000,-2180437851223232976641145680469514548856057353694460969417252071365038749284618628375851116745943692205071019817241218503909860789796186020949183487219779764224.000000,3,0,-0.209843,1.158797,1,0,0,0,0.000000,0.000000
4590935252201529633,0.237976,0.000000,0.000000,0.000000,0.000000,0.000000,-27948209010217259286172613631514041561625689789115687172608341700804790353703111349593360048278569693754270509081107886276696936388769485889318968558092288.000000,0.000000,0,48714,1.424050,0.000000,0,0,0,24865,0.000000,0.000000
4500133920542181906,0.000000,0.000000,0.000000,-17.000000,0.000000,0.000000,-33257747573378531412269427533618926712779241483286422182540102912384915469275304085693156235112317287199257560372069017662583595624720891551236352951451648.000000,0.000000,0,16282,0.000000,0.000000,0,3455,48876,18962,-0.047730,0.000000
1047550903,0.000000,0.000000,0.000000,0.000000,0.000000,-27948209010217259286172613631514041561625689789115687172608341700804790353703111349593360048278569693754270509081107886276696936388769485889318968558092288.000000,0.000000,2568425733177916751582514591250062824975751856847252861083144972201529372215371495172688738416791235950675277761805770367685269653410060480042878305982363696267199058168185838960773319279454451792623658074112.000000,128,0,0.000000,0.000000,48451,19674,16256,154,0.000000,0.000000
201500359,0.063252,1.062315,0.000000,0.000000,0.000000,0.000000,0.000000,-27948209010217259286172613631514041561625689789115687172608341700804790353703111349593360048278569693754270509081107886276696936388769485889318968558092288.000000,3,0,0.000000,0.063252,986,992,1,0,0.000000,1.062315
-4828166917200019456,1.263460,0.253581,0.000000,0.000000,-17.000000,0.000000,0.000000,-33270841235706069589861231696617348462769429835425735006977112905350322712472818426145189159331416201859604184223041053831632397305239654860674796863094784.000000,3,0,-0.031116,1.263460,1,0,0,0,0.000000,0.000000
4581554914775540154,0.253581,0.000000,0.000000,0.000000,0.000000,0.000000,-27948209010217259286172613631514041561625689789115687172608341700804790353703111349593360048278569693754270509081107886276696936388769485889318968558092288.000000,0.000000,0,48676,1.163694,0.000000,0,0,0,8634,0.000000,0.000000
4506270896231693745,0.000000,0.000000,0.000000,-17.000000,0.000000,0.000000,-33270841235706069589861231696617348462769429835425735006977112905350322712472818426145189159331416201859604184223041053831632397305239654860674796863094784.000000,0.000000,0,16274,0.000000,0.000000,0,1083,48786,15793,-0.106436,0.000000
1049197953,0.000000,0.000000,0.000000,0.000000,0.000000,-426455825961567066744577234367584862695704495073176378976567713940502782496690541833394776127297511196201637406633115940501357061596214079121688363008.000000,0.000000,2417851639229258349412352.000000,251,0,0.000000,0.000000,48601,27724,16292,154,0.000000,0.000000
201620365,-0.127307,1.315234,0.000000,0.000000,0.000000,0.000000,0.000000,-27948209010217259286172613631514041561625689789115687172608341700804790353703111349593360048278569693754270509081107886276696936388769485889318968558092288.000000,3,0,0.000000,-0.127307,984,993,1,0,0.000000,1.315234
-4827512110781038592,1.292575,0.287392,0.000000,0.000000,-17.000000,0.000000,0.000000,-33270841235706069589861231696617348462769429835425735006977112905350322712472818426145189159331416201859604184223041053831632397305239654860674796863094784.000000,3,0,-0.031551,1.292575,1,0,0,0,0.000000,0.000000
4566194187590890404,0.287392,0.000000,0.000000,0.000000,0.000000,0.000000,-27948209010217259286172613631514041561625689789115687172608341700804790353703111349593360048278569693754270509081107886276696936388769485889318968558092288.000000,0.000000,0,48846,0.868674,0.000000,0,0,0,62372,0.000000,0.000000
4509831677524323512,0.000000,0.000000,0.000000,-17.000000,0.000000,0.000000,-33257747673274485022381178937830038066160563267241562747819179739877938177287199727925656078962112585231000637486530813547595528279056113288461482752737280.000000,0.000000,0,16292,0.000000,0.000000,0,50660,48527,11448,-0.260895,0.000000
1050027012,0.000000,0.000000,0.000000,0.000000,0.000000,-27948209010217259286172613631514041561625689789115687172608341700804790353703111349593360048278569693754270509081107886276696936388769485889318968558092288.000000,0.000000,0.000000,148,0,0.000000,0.000000,48773,42678,16278,154,0.000000,0.000000
201720457,0.074552,1.085746,0.000000,0.000000,0.000000,0.000000,0.000000,-27948209010217259286172613631514041561625689789115687172608341700804790353703111349593360048278569693754270509081107886276696936388769485889318968558092288.000000,3,0,0.000000,0.074552,986,993,1,0,0.000000,1.085746
-4710588339181322240,1.569075,0.298445,0.000000,0.000000,-17.000000,0.000000,0.000000,-33270841235706069589861231696617348462769429835425735006977112905350322712472818426145189159331416201859604184223041053831632397305239654860674796863094784.000000,3,0,-0.313727,1.569075,1,0,0,0,0.000000,0.000000
4584092063618842275,0.296495,0.000000,0.000000,0.000000,0.000000,0.000000,-27948209010217259286172613631514041561625689789115687172608341700804790353703111349593360048278569693754270509081107886276696936388769485889318968558092288.000000,0.000000,0,48560,1.234114,0.000000,0,0,0,16035,0.000000,0.000000
4510300202621195035,0.000000,0.000000,0.000000,-17.000000,0.000000,0.000000,-33270840936018208759525977483984014402625464483560313311139882422871254588437131499447689627782030307764374952879655666176596599342233989648999407459237888.000000,0.000000,0,16283,0.000000,0.000000,0,62892,48753,54043,-0.085867,0.000000
1050048830,0.000000,0.000000,0.000000,0.000000,0.000000,-27948209010217259286172613631514041561625689789115687172608341700804790353703111349593360048278569693754270509081107886276696936388769485889318968558092288.000000,0.000000,-231584178474632390847141970017375815706539969331281128078915168015826259279872.000000,218,0,0.000000,0.000000,48559,23959,16248,154,0.000000,0.000000
201820361,0.036782,1.301797,0.000000,0.000000,0.000000,0.000000,0.000000,-27948209010217259286172613631514041561625689789115687172608341700804790353703111349593360048278569693754270509081107886276696936388769485889318968558092288.000000,3,0,0.000000,0.036782,986,992,1,0,0.000000,1.301797
-4788031968237322240,1.180483,0.289993,0.000000,0.000000,-17.000000,0.000000,0.000000,-33270841235706069589861231696617348462769429835425735006977112905350322712472818426145189159331416201859604184223041053831632397305239654860674796863094784.000000,3,0,-0.069089,1.180483,1,0,0,0,0.000000,0.000000
4579189345576054111,0.289993,0.000000,0.000000,0.000000,0.000000,0.000000,-27948209010217259286172613631514041561625689789115687172608341700804790353703111349593360048278569693754270509081107886276696936388769485889318968558092288.000000,0.000000,0,48720,1.098036,0.000000,0,0,0,27999,0.000000,0.000000
4508332403226486117,0.000000,0.000000,0.000000,-17.000000,0.000000,0.000000,-2180437851223232976641145680469514548856057353694460969417252071365038749284618628375851116745943692205071019817241218503909860789796186020949183487219779764224.000000,0.000000,0,16306,0.000000,0.000000,0,9581,15872,42341,0.036364,0.000000
1049677935,0.000000,0.000000,0.000000,0.000000,0.000000,-27948209010217259286172613631514041561625689789115687172608341700804790353703111349593360048278569693754270509081107886276696936388769485889318968558092288.000000,0.000000,-0.000000,242,0,0.000000,0.000000,15636,12506,16322,154,0.000000,0.000000
201920455,-0.064122,1.274383,0.000000,0.000000,0.000000,0.000000,0.000000,-27948209010217259286172613631514041561625689789115687172608341700804790353703111349593360048278569693754270509081107886276696936388769485889318968558092288.000000,3,0,0.000000,-0.064122,986,993,1,0,0.000000,1.274383
-4800387472456417280,1.290203,0.284141,0.000000,0.000000,-17.000000,0.000000,0.000000,-33270841135810115979749480292406237109388108051470594441698036077857300004460922783912689315481620903827861107108579257946620464650904433123449667061809152.000000,3,0,-0.055078,1.290203,1,0,0,0,0.000000,0.000000
4572721599408023186,0.280890,0.000000,0.000000,0.000000,0.000000,0.000000,-27948209010217259286172613631514041561625689789115687172608341700804790353703111349593360048278569693754270509081107886276696936388769485889318968558092288.000000,0.000000,0,15736,0.959260,0.000000,0,0,0,42642,0.000000,0.000000
4508051289022050151,0.000000,0.000000,0.000000,-17.000000,0.000000,0.000000,-33270841235706069589861231696617348462769429835425735006977112905350322712472818426145189159331416201859604184223041053831632397305239654860674796863094784.000000,0.000000,0,16230,0.000000,0.000000,0,1694,48456,44903,-0.418797,0.000000
1049568848,0.000000,0.000000,0.000000,0.000000,0.000000,-99291984448574266104162026747964523428982239000773145578933813129668771870595063509744307055905813164124646551588810035144294859281790926848.000000,0.000000,-0.000000,108,0,0.000000,0.000000,48854,32694,16230,154,0.000000,0.000000
202040452,-0.208383,1.214079,0.000000,0.000000,0.000000,0.000000,0.000000,-426455825961567066744577234367584862695704495073176378976567713940502782496690541833394776127297511196201637406633115940501357061596214079121688363008.000000,3,0,0.000000,-0.208383,986,992,1,0,0.000000,1.214079
-4726890226855706624,1.360513,0.267885,0.000000,0.000000,-17.000000,0.000000,0.000000,-33270841235706069589861231696617348462769429835425735006977112905350322712472818426145189159331416201859604184223041053831632397305239654860674796863094784.000000,3,0,-0.225305,1.360513,1,0,0,0,0.000000,0.000000
4583563761151456624,0.256182,0.000000,0.000000,0.000000,0.000000,0.000000,-27948209010217259286172613631514041561625689789115687172608341700804790353703111349593360048278569693754270509081107886276696936388769485889318968558092288.000000,0.000000,0,48329,1.219450,0.000000,0,0,0,13680,0.000000,0.000000
4504490507734547413,0.000000,0.000000,0.000000,-17.000000,0.000000,0.000000,-33270841135810115979749480292406237109388108051470594441698036077857300004460922783912689315481620903827861107108579257946620464650904433123449667061809152.000000,0.000000,0,16290,0.000000,0.000000,0,7433,48526,64469,-0.428509,0.000000
1048587068,0.000000,0.000000,0.000000,0.000000,0.000000,-27948209010217259286172613631514041561625689789115687172608341700804790353703111349593360048278569693754270509081107886276696936388769485889318968558092288.000000,0.000000,-0.000000,101,0,0.000000,0.000000,48859,22546,16286,154,0.000000,0.000000
202140361,-0.231825,1.004959,0.000000,0.000000,0.000000,0.000000,0.000000,-426455825961567066744577234367584862695704495073176378976567713940502782496690541833394776127297511196201637406633115940501357061596214079121688363008.000000,3,0,0.000000,-0.231825,986,993,1,0,0.000000,1.004959
-4733431092680327168,1.055531,0.242527,0.000000,0.000000,-17.000000,0.000000,0.000000,-33270841235706069589861231696617348462769429835425735006977112905350322712472818426145189159331416201859604184223041053831632397305239654860674796863094784.000000,3,0,-0.202612,1.055531,1,0,0,0,0.000000,0.000000
4567188369432623094,0.242527,0.000000,0.000000,0.000000,0.000000,0.000000,-27948209010217259286172613631514041561625689789115687172608341700804790353703111349593360048278569693754270509081107886276696936388769485889318968558092288.000000,0.000000,0,48723,0.882471,0.000000,0,0,0,47094,0.000000,0.000000
4495261271557228553,0.000000,0.000000,0.000000,-17.000000,0.000000,0.000000,-2181295944383968087063234678043020329353017728673694790507296800330854205990275742573017326934486189372634867554391785356044359019861637509654969134099113967616.000000,0.000000,0,16317,0.000000,0.000000,0,5258,48747,18441,0.169311,0.000000
1046634575,0.000000,0.000000,0.000000,0.000000,0.000000,-27948209010217259286172613631514041561625689789115687172608341700804790353703111349593360048278569693754270509081107886276696936388769485889318968558092288.000000,0.000000,-11031304526203974597457456414861827591216226218170224705794538792432397774848431640257320003887617175667569787102671861633294128382337464639166223001902133228245297232354359845986844033174623155170927185464197384241152.000000,95,0,0.000000,0.000000,15917,34544,16277,154,0.000000,0.000000
202240450,-0.205559,1.327251,0.000000,0.000000,0.000000,0.000000,0.000000,-27948209010217259286172613631514041561625689789115687172608341700804790353703111349593360048278569693754270509081107886276696936388769485889318968558092288.000000,3,0,0.000000,-0.205559,986,992,1,0,0.000000,1.327251
-4763071014177341440,1.299460,0.201564,0.000000,0.000000,-17.000000,0.000000,0.000000,-2181295950930749302855518418069399723008216033106978882593426379297436942182543335382366436701026374024443181856165153611164501038296150601425755240756169146368.000000,3,0,-0.112389,1.299460,1,0,0,0,0.000000,0.000000
4589547372179130379,0.188560,0.000000,0.000000,0.000000,0.000000,0.000000,-27948209010217259286172613631514041561625689789115687172608341700804790353703111349593360048278569693754270509081107886276696936388769485889318968558092288.000000,0.000000,0,48784,1.385529,0.000000,0,0,0,34827,0.000000,0.000000
4485890795376854159,0.000000,0.000000,0.000000,-17.000000,0.000000,0.000000,-33270841235706069589861231696617348462769429835425735006977112905350322712472818426145189159331416201859604184223041053831632397305239654860674796863094784.000000,0.000000,0,16289,0.000000,0.000000,0,53863,48587,50319,-0.155281,0.000000
1044540110,0.000000,0.000000,0.000000,0.000000,0.000000,-27948209010217259286172613631514041561625689789115687172608341700804790353703111349593360048278569693754270509081107886276696936388769485889318968558092288.000000,0.000000,0.000000,2,0,0.000000,0.000000,48671,12661,16312,154,0.000000,0.000000
202340362,-0.507204,1.157807,0.000000,0.000000,0.000000,0.000000,0.000000,-27948209010217259286172613631514041561625689789115687172608341700804790353703111349593360048278569693754270509081107886276696936388769485889318968558092288.000000,3,0,0.000000,-0.507204,986,992,1,0,0.000000,1.157807
-4746200928099500032,1.102191,0.198963,0.000000,0.000000,-17.000000,0.000000,0.000000,-2181295950930749302855518418069399723008216033106978882593426379297436942182543335382366436701026374024443181856165153611164501038296150601425755240756169146368.000000,3,0,-0.158308,1.102191,1,0,0,0,0.000000,0.000000
4579370679014864100,0.198963,0.000000,0.000000,0.000000,0.000000,0.000000,-27948209010217259286172613631514041561625689789115687172608341700804790353703111349593360048278569693754270509081107886276696936388769485889318968558092288.000000,0.000000,0,47493,1.103069,0.000000,0,0,0,13540,0.000000,0.000000
4492262718660577024,0.000000,0.000000,0.000000,-17.000000,0.000000,0.000000,-2180437851223232976641145680469514548856057353694460969417252071365038749284618628375851116745943692205071019817241218503909860789796186020949183487219779764224.000000,0.000000,0,16254,0.000000,0.000000,0,39182,48644,34560,-0.336487,0.000000
1045936420,0.000000,0.000000,0.000000,0.000000,0.000000,-426455825961567066744577234367584862695704495073176378976567713940502782496690541833394776127297511196201637406633115940501357061596214079121688363008.000000,0.000000,0.000000,72,0,0.000000,0.000000,48812,42261,16290,154,0.000000,0.000000
202460361,-0.487957,1.328074,0.000000,0.000000,0.000000,0.000000,0.000000,-27948209010217259286172613631514041561625689789115687172608341700804790353703111349593360048278569693754270509081107886276696936388769485889318968558092288.000000,3,0,0.000000,-0.487957,986,992,1,0,0.000000,1.328074
-4788783372765757440,1.475800,0.217169,0.000000,0.000000,-17.000000,0.000000,0.000000,-2180437844676451760848861940443135155200859049261176877331122492398456013092351035566502006979403507553262705515467850248789718771361672929178397380562724585472.000000,3,0,-0.067785,1.475800,1,0,0,0,0.000000,0.000000
4577624293856683127,0.217169,0.000000,0.000000,0.000000,0.000000,0.000000,-426455825961567066744577234367584862695704495073176378976567713940502782496690541833394776127297511196201637406633115940501357061596214079121688363008.000000,0.000000,0,48774,1.054597,0.000000,0,0,0,42103,0.000000,0.000000
4490763444363398028,0.000000,0.000000,0.000000,-17.000000,0.000000,0.000000,-33283934798137654157341284455404658859378296403609907266135046070822707247658437124364722239700719818488207730959551294115669266331423196432888110973452288.000000,0.000000,0,16279,0.000000,0.000000,0,61381,48783,2956,-0.278783,0.000000
1045587343,0.000000,0.000000,0.000000,0.000000,0.000000,-27948209010217259286172613631514041561625689789115687172608341700804790353703111349593360048278569693754270509081107886276696936388769485889318968558092288.000000,0.000000,-0.000000,188,0,0.000000,0.000000,48782,31872,16265,154,0.000000,0.000000
202560437,-0.041685,1.334894,0.000000,0.000000,0.000000,0.000000,0.000000,-27948209010217259286172613631514041561625689789115687172608341700804790353703111349593360048278569693754270509081107886276696936388769485889318968558092288.000000,3,0,0.000000,-0.041685,988,993,1,0,0.000000,1.334894
-4765397649501192192,1.000039,0.211968,0.000000,0.000000,-17.000000,0.000000,0.000000,-33283934798137654157341284455404658859378296403609907266135046070822707247658437124364722239700719818488207730959551294115669266331423196432888110973452288.000000,3,0,-0.108353,1.000039,1,0,0,0,0.000000,0.000000
4581261508386106351,0.217169,0.000000,0.000000,0.000000,0.000000,0.000000,-27948209010217259286172613631514041561625689789115687172608341700804790353703111349593360048278569693754270509081107886276696936388769485889318968558092288.000000,0.000000,0,48774,1.155550,0.000000,0,0,0,11247,0.000000,0.000000
4494136814759081726,0.000000,0.000000,0.000000,-17.000000,0.000000,0.000000,-33283934498449793327006030242771324799234331051744485570297815588343639123622750197667222708151333924392978499616165906460633468368417531221212721569595392.000000,0.000000,0,16312,0.000000,0.000000,0,33758,15651,30462,0.251494,0.000000
1047332730,0.000000,0.000000,0.000000,0.000000,0.000000,-426455825961567066744577234367584862695704495073176378976567713940502782496690541833394776127297511196201637406633115940501357061596214079121688363008.000000,0.000000,-12554203470773361527671578846415332832204710888928069025792.000000,195,0,0.000000,0.000000,16000,29567,16298,154,0.000000,0.000000
202660368,-0.289986,1.290239,0.000000,0.000000,0.000000,0.000000,0.000000,-426455825961567066744577234367584862695704495073176378976567713940502782496690541833394776127297511196201637406633115940501357061596214079121688363008.000000,3,0,0.000000,-0.289986,988,995,1,0,0.000000,1.290239
