timestamp,gyro_fused_x,gyro_fused_y,baro_height,gps_lon,gps_lat,gps_height,gps_speed,gps_heading,gps_sats,status_flags,pid_correction_roll,pid_correction_pitch,crsf_1,crsf_2,crsf_3,crsf_4
179040408,73.897697,108.178070,2.093668,754705080000000.000000,5175098660000000.000000,61.459000,1.060000,1713728799999.999756,11,1,0.820833,-0.217467,173,1169,1065,992
179060342,73.614212,107.969643,2.093668,754705080000000.000000,5175098660000000.000000,61.459000,1.060000,1713728799999.999756,11,1,0.820833,-0.217467,173,1166,1065,992
179080573,73.315178,107.875542,2.093018,754705150000000.000000,5175098550000000.000000,61.476000,1.203000,1656729599999.999756,11,1,0.820833,-0.217467,173,1166,1064,992
179100342,72.993500,107.897858,2.093018,754705150000000.000000,5175098550000000.000000,61.476000,1.203000,1656729599999.999756,11,1,0.820833,-0.217467,173,1166,1065,992
179120431,72.662880,107.999733,2.092367,754705150000000.000000,5175098550000000.000000,61.476000,1.203000,1656729599999.999756,11,1,0.820833,-0.217467,173,1166,1065,992
179140342,72.315285,108.198792,2.092367,754705150000000.000000,5175098550000000.000000,61.476000,1.203000,1656729599999.999756,11,1,0.820833,-0.217467,173,1166,1065,992
179160570,71.943840,108.518654,2.090417,754705220000000.000000,5175098400000000.000000,61.455000,1.553000,1633920799999.999756,11,1,0.820833,-0.217467,173,1166,1067,992
179180339,71.599564,108.829163,2.090417,754705220000000.000000,5175098400000000.000000,61.455000,1.553000,1633920799999.999756,11,1,0.820833,-0.217467,173,1166,1065,992
179200428,71.231468,109.023827,2.088466,754705220000000.000000,5175098400000000.000000,61.455000,1.553000,1633920799999.999756,11,1,0.820833,-0.217467,173,1166,1064,992
179220337,70.847931,109.093971,2.088466,754705220000000.000000,5175098400000000.000000,61.455000,1.553000,1633920799999.999756,11,1,0.820833,-0.217467,173,1166,1065,992
179240400,70.514702,109.015648,2.087166,754705220000000.000000,5175098400000000.000000,61.455000,1.553000,1633920799999.999756,11,1,0.820833,-0.217467,173,1166,1065,992
179260337,70.166763,108.774185,2.087166,754705220000000.000000,5175098400000000.000000,61.455000,1.553000,1633920799999.999756,11,1,0.820833,-0.217467,173,1166,1065,992
179280573,69.843605,108.362549,2.087816,754705270000000.000000,5175098260000000.000000,61.448000,1.607000,1660292199999.999756,11,1,0.820833,-0.217467,173,1166,1064,993
179300344,69.574379,107.817345,2.087816,754705270000000.000000,5175098260000000.000000,61.448000,1.607000,1660292199999.999756,11,1,0.820833,-0.217467,173,1169,1064,992
179320433,69.312279,107.218384,2.089116,754705270000000.000000,5175098260000000.000000,61.448000,1.607000,1660292199999.999756,11,1,0.820833,-0.217467,173,1166,1065,992
179340338,69.111794,106.669624,2.089116,754705270000000.000000,5175098260000000.000000,61.448000,1.607000,1660292199999.999756,11,1,0.820833,-0.217467,173,1169,1067,992
179360575,68.966667,106.226616,2.089767,754705290000000.000000,5175098130000000.000000,61.449000,1.434000,1697737199999.999756,11,1,0.820833,-0.217467,173,1166,1065,992
179380341,68.818825,105.869087,2.089767,754705290000000.000000,5175098130000000.000000,61.449000,1.434000,1697737199999.999756,11,1,0.820833,-0.217467,173,1169,1065,992
179400428,68.757149,105.519226,2.091717,754705290000000.000000,5175098130000000.000000,61.449000,1.434000,1697737199999.999756,11,1,0.820833,-0.217467,173,1166,1064,992
179420342,68.716362,105.166290,2.091717,754705290000000.000000,5175098130000000.000000,61.449000,1.434000,1697737199999.999756,11,1,0.820833,-0.217467,173,1166,1065,992
179460338,68.684853,104.734856,2.093668,754705290000000.000000,5175098130000000.000000,61.449000,1.434000,1697737199999.999756,11,1,0.820833,-0.217467,173,1169,1065,992
179480574,68.725342,104.622482,2.096919,754705320000000.000000,5175097970000000.000000,61.443000,1.656000,1729359799999.999756,11,1,0.820833,-0.217467,173,1166,1065,992
179500340,68.765938,104.455582,2.096919,754705320000000.000000,5175097970000000.000000,61.443000,1.656000,1729359799999.999756,11,1,0.820833,-0.217467,173,1166,1065,992
179520434,68.862808,104.213860,2.099520,754705320000000.000000,5175097970000000.000000,61.443000,1.656000,1729359799999.999756,11,1,0.820833,-0.217467,173,1166,1062,992
179540340,68.965477,104.025810,2.099520,754705320000000.000000,5175097970000000.000000,61.443000,1.656000,1729359799999.999756,11,1,0.820833,-0.217467,173,1169,1064,992
179560572,69.096886,104.069389,2.100820,754705380000000.000000,5175097820000000.000000,61.385000,1.713000,1701214799999.999756,11,1,0.820833,-0.217467,173,1166,1064,992
179580339,69.310745,104.322525,2.100820,754705380000000.000000,5175097820000000.000000,61.385000,1.713000,1701214799999.999756,11,1,0.820833,-0.217467,173,1169,1064,992
179600426,69.526810,104.636208,2.100170,754705380000000.000000,5175097820000000.000000,61.385000,1.713000,1701214799999.999756,11,1,0.820833,-0.217467,173,1166,1065,991
179620339,69.777946,105.027405,2.100170,754705380000000.000000,5175097820000000.000000,61.385000,1.713000,1701214799999.999756,11,1,0.820833,-0.217467,173,1166,1065,992
179640406,70.086304,105.592644,2.099520,754705380000000.000000,5175097820000000.000000,61.385000,1.713000,1701214799999.999756,11,1,0.820833,-0.217467,173,1169,1065,992
179660343,70.427536,106.228905,2.099520,754705380000000.000000,5175097820000000.000000,61.385000,1.713000,1701214799999.999756,11,1,0.820833,-0.217467,173,1166,1065,992
179680572,70.813324,106.740288,2.098219,754705400000000.000000,5175097640000000.000000,61.319000,1.907000,1724853199999.999756,11,1,0.820833,-0.217467,173,1169,1065,992
179700340,71.197487,107.194008,2.098219,754705400000000.000000,5175097640000000.000000,61.319000,1.907000,1724853199999.999756,11,1,0.820833,-0.217467,173,1169,1065,992
179720437,71.622421,107.698029,2.097569,754705400000000.000000,5175097640000000.000000,61.319000,1.907000,1724853199999.999756,11,1,0.820833,-0.217467,173,1166,1065,992
179740339,72.061752,108.274803,2.097569,754705400000000.000000,5175097640000000.000000,61.319000,1.907000,1724853199999.999756,11,1,0.820833,-0.217467,173,1166,1067,992
179760576,72.493729,108.838707,2.096269,754705400000000.000000,5175097420000000.000000,61.360000,2.350000,1778572199999.999756,11,1,0.820833,-0.217467,173,1166,1065,992
179780344,72.936821,109.369347,2.096269,754705400000000.000000,5175097420000000.000000,61.360000,2.350000,1778572199999.999756,11,1,0.820833,-0.217467,178,1166,1064,992
179800427,73.337570,109.987190,2.094318,754705400000000.000000,5175097420000000.000000,61.360000,2.350000,1778572199999.999756,11,1,0.820833,-0.217467,204,1169,1065,992
179820344,73.725075,110.738960,2.094318,754705400000000.000000,5175097420000000.000000,61.360000,2.350000,1778572199999.999756,11,1,0.820833,-0.217467,220,1166,1065,992
179840404,74.106865,111.479355,2.092367,754705400000000.000000,5175097420000000.000000,61.360000,2.350000,1778572199999.999756,11,1,0.820833,-0.217467,248,1169,1065,992
179880573,74.735245,112.338890,2.090417,754705460000000.000000,5175097210000000.000000,61.383000,2.344000,1751571399999.999756,11,1,0.820833,-0.217467,373,1169,1064,992
179900342,75.009918,112.658257,2.090417,754705460000000.000000,5175097210000000.000000,61.383000,2.344000,1751571399999.999756,11,1,0.820833,-0.217467,420,1169,1065,992
179920414,75.251137,112.821312,2.090417,754705460000000.000000,5175097210000000.000000,61.383000,2.344000,1751571399999.999756,11,1,0.820833,-0.217467,429,1166,1065,992
179940343,75.420921,112.665955,2.090417,754705460000000.000000,5175097210000000.000000,61.383000,2.344000,1751571399999.999756,11,1,0.820833,-0.217467,428,1166,1065,992
179960576,75.605194,112.283516,2.090417,754705590000000.000000,5175097010000000.000000,61.475000,2.352000,1684319399999.999756,11,1,0.820833,-0.217467,432,1166,1065,992
179980342,75.775253,111.882591,2.090417,754705590000000.000000,5175097010000000.000000,61.475000,2.352000,1684319399999.999756,11,1,0.820833,-0.217467,448,1166,1065,992
180000427,75.925171,111.584167,2.090417,754705590000000.000000,5175097010000000.000000,61.475000,2.352000,1684319399999.999756,11,1,0.820833,-0.217467,460,1166,1064,992
180020344,76.055237,111.323120,2.090417,754705590000000.000000,5175097010000000.000000,61.475000,2.352000,1684319399999.999756,11,1,0.820833,-0.217467,460,1169,1065,992
180040563,76.199089,110.946358,2.091717,754705600000000.000000,5175096760000000.000000,61.502000,2.635000,1736429799999.999756,11,1,0.820833,-0.217467,460,1166,1067,992
180060340,76.340057,110.448036,2.091717,754705600000000.000000,5175096760000000.000000,61.502000,2.635000,1736429799999.999756,11,1,0.820833,-0.217467,456,1166,1065,992
180080442,76.458015,109.943062,2.094968,754705600000000.000000,5175096760000000.000000,61.502000,2.635000,1736429799999.999756,11,1,0.820833,-0.217467,460,1166,1064,992
180100343,76.610413,109.408585,2.094968,754705600000000.000000,5175096760000000.000000,61.502000,2.635000,1736429799999.999756,11,1,0.820833,-0.217467,456,1166,1065,992
180120436,76.735252,108.706589,2.098870,754705600000000.000000,5175096760000000.000000,61.502000,2.635000,1736429799999.999756,11,1,0.820833,-0.217467,460,1166,1065,992
180140345,76.808517,108.006828,2.098870,754705600000000.000000,5175096760000000.000000,61.502000,2.635000,1736429799999.999756,11,1,0.820833,-0.217467,460,1166,1064,992
180160572,76.956818,107.598572,2.101470,754705680000000.000000,5175096550000000.000000,61.457000,2.399000,1698002399999.999756,11,1,0.820833,-0.217467,461,1166,1064,992
180180338,77.115150,107.337746,2.101470,754705680000000.000000,5175096550000000.000000,61.457000,2.399000,1698002399999.999756,11,1,0.820833,-0.217467,480,1166,1065,992
180200428,77.217514,107.125061,2.102120,754705680000000.000000,5175096550000000.000000,61.457000,2.399000,1698002399999.999756,11,1,0.820833,-0.217467,498,1166,1062,992
180220337,77.400139,107.149796,2.102120,754705680000000.000000,5175096550000000.000000,61.457000,2.399000,1698002399999.999756,11,1,0.820833,-0.217467,504,1166,1064,992
180240404,77.568581,107.584206,2.102771,754705680000000.000000,5175096550000000.000000,61.457000,2.399000,1698002399999.999756,11,1,0.820833,-0.217467,503,1166,1064,992
180260338,77.710136,108.336632,2.102771,754705680000000.000000,5175096550000000.000000,61.457000,2.399000,1698002399999.999756,11,1,0.820833,-0.217467,512,1166,1064,992
180300338,78.091568,109.590851,2.104721,754705840000000.000000,5175096330000000.000000,61.511000,2.599000,1629893199999.999756,11,1,0.820833,-0.217467,564,1166,1064,992
180320434,78.218147,109.957809,2.107972,754705840000000.000000,5175096330000000.000000,61.511000,2.599000,1629893199999.999756,11,1,0.820833,-0.217467,583,1166,1065,992
180340343,78.364815,110.262199,2.107972,754705840000000.000000,5175096330000000.000000,61.511000,2.599000,1629893199999.999756,11,1,0.820833,-0.217467,594,1166,1070,992
180360573,78.441452,110.350433,2.112524,754705900000000.000000,5175096100000000.000000,61.647000,2.811000,1678851999999.999756,11,1,0.820833,-0.217467,612,1166,1068,992
180380338,78.450302,110.139244,2.112524,754705900000000.000000,5175096100000000.000000,61.647000,2.811000,1678851999999.999756,11,1,0.820833,-0.217467,640,1166,1065,992
180400426,78.466682,109.633400,2.118376,754705900000000.000000,5175096100000000.000000,61.647000,2.811000,1678851999999.999756,11,1,0.820833,-0.217467,666,1166,1067,992
180420340,78.373581,109.049873,2.118376,754705900000000.000000,5175096100000000.000000,61.647000,2.811000,1678851999999.999756,11,1,0.820833,-0.217467,688,1166,1070,992
180440406,78.249969,108.495895,2.126178,754705900000000.000000,5175096100000000.000000,61.647000,2.811000,1678851999999.999756,11,1,0.820833,-0.217467,709,1166,1065,992
180460337,78.120125,107.936935,2.126178,754705900000000.000000,5175096100000000.000000,61.647000,2.811000,1678851999999.999756,11,1,0.820833,-0.217467,728,1166,1065,992
180480571,77.887627,107.311653,2.134631,754705990000000.000000,5175095800000000.000000,61.552000,3.059000,1669881999999.999756,11,1,0.820833,-0.217467,741,1166,1065,992
180500342,77.641899,106.640839,2.134631,754705990000000.000000,5175095800000000.000000,61.552000,3.059000,1669881999999.999756,11,1,0.820833,-0.217467,768,1166,1065,992
180520430,77.426956,106.269196,2.143084,754705990000000.000000,5175095800000000.000000,61.552000,3.059000,1669881999999.999756,11,1,0.820833,-0.217467,820,1166,1065,992
180540338,77.079002,106.484039,2.143084,754705990000000.000000,5175095800000000.000000,61.552000,3.059000,1669881999999.999756,11,1,0.820833,-0.217467,856,1166,1065,992
180560576,76.831337,107.223328,2.151536,754706090000000.000000,5175095560000000.000000,61.483000,2.711000,1642119199999.999756,11,1,0.820833,-0.217467,877,1166,1064,992
180580338,76.689278,108.118477,2.151536,754706090000000.000000,5175095560000000.000000,61.483000,2.711000,1642119199999.999756,11,1,0.820833,-0.217467,893,1166,1065,992
180600430,76.402420,109.062317,2.161940,754706090000000.000000,5175095560000000.000000,61.483000,2.711000,1642119199999.999756,11,1,0.820833,-0.217467,925,1166,1065,992
180620338,76.247673,110.217018,2.161940,754706090000000.000000,5175095560000000.000000,61.483000,2.711000,1642119199999.999756,11,1,0.820833,-0.217467,972,1169,1064,992
180640402,76.154884,111.575035,2.172993,754706090000000.000000,5175095560000000.000000,61.483000,2.711000,1642119199999.999756,11,1,0.820833,-0.217467,996,1166,1067,992
180660337,75.978012,112.844139,2.172993,754706090000000.000000,5175095560000000.000000,61.483000,2.711000,1642119199999.999756,11,1,0.820833,-0.217467,1006,1166,1067,992
180680573,75.962242,113.650436,2.185997,754706230000000.000000,5175095370000000.000000,61.574000,2.528000,1613881199999.999756,11,1,0.820833,-0.217467,1014,1169,1065,992
180720433,75.893097,113.444199,2.200302,754706230000000.000000,5175095370000000.000000,61.574000,2.528000,1613881199999.999756,11,1,0.820833,-0.217467,1035,1166,1065,992
180740338,75.951492,112.926872,2.200302,754706230000000.000000,5175095370000000.000000,61.574000,2.528000,1613881199999.999756,11,1,0.820833,-0.217467,1044,1166,1065,992
180760571,76.025513,112.261971,2.213956,754706330000000.000000,5175095080000000.000000,61.624000,3.328000,1659709599999.999756,11,1,0.820833,-0.217467,1046,1166,1065,992
180780337,76.071068,111.407715,2.213956,754706330000000.000000,5175095080000000.000000,61.624000,3.328000,1659709599999.999756,11,1,0.820833,-0.217467,1048,1169,1067,992
180800425,76.285988,110.378448,2.229561,754706330000000.000000,5175095080000000.000000,61.624000,3.328000,1659709599999.999756,11,1,0.820833,-0.217467,1049,1166,1067,992
180820343,76.432396,109.210335,2.229561,754706330000000.000000,5175095080000000.000000,61.624000,3.328000,1659709599999.999756,11,1,0.820833,-0.217467,1049,1169,1067,992
180840405,76.605629,107.982956,2.245166,754706330000000.000000,5175095080000000.000000,61.624000,3.328000,1659709599999.999756,11,1,0.820833,-0.217467,1060,1166,1065,992
180860342,76.941978,106.798302,2.245166,754706330000000.000000,5175095080000000.000000,61.624000,3.328000,1659709599999.999756,11,1,0.820833,-0.217467,1080,1166,1065,992
180880575,77.151878,106.024597,2.258821,754706440000000.000000,5175094830000000.000000,61.601000,2.899000,1643912999999.999756,11,1,0.820833,-0.217467,1097,1166,1065,992
180900341,77.477089,105.851768,2.258821,754706440000000.000000,5175094830000000.000000,61.601000,2.899000,1643912999999.999756,11,1,0.820833,-0.217467,1102,1169,1067,992
180920434,77.927521,106.028999,2.273125,754706440000000.000000,5175094830000000.000000,61.601000,2.899000,1643912999999.999756,11,1,0.820833,-0.217467,1105,1166,1067,992
180940338,78.151909,106.441177,2.273125,754706440000000.000000,5175094830000000.000000,61.601000,2.899000,1643912999999.999756,11,1,0.820833,-0.217467,1116,1166,1068,992
180960574,78.455002,107.016106,2.286779,754706570000000.000000,5175094550000000.000000,61.554000,3.079000,1629457599999.999756,10,1,0.820833,-0.217467,1132,1169,1067,992
180980338,78.750092,107.560974,2.286779,754706570000000.000000,5175094550000000.000000,61.554000,3.079000,1629457599999.999756,10,1,0.820833,-0.217467,1142,1166,1067,992
181000425,78.831612,107.903938,2.299783,754706570000000.000000,5175094550000000.000000,61.554000,3.079000,1629457599999.999756,10,1,0.820833,-0.217467,1142,1169,1067,992
181020343,78.978317,107.895699,2.299783,754706570000000.000000,5175094550000000.000000,61.554000,3.079000,1629457599999.999756,10,1,0.820833,-0.217467,1142,1166,1067,992
181040411,79.024055,107.411530,2.314088,754706570000000.000000,5175094550000000.000000,61.554000,3.079000,1629457599999.999756,10,1,0.820833,-0.217467,1144,1166,1067,992
181060341,78.891754,106.595818,2.314088,754706570000000.000000,5175094550000000.000000,61.554000,3.079000,1629457599999.999756,10,1,0.820833,-0.217467,1144,1166,1067,992
181080576,78.862747,105.753311,2.327743,754706650000000.000000,5175094240000000.000000,61.619000,3.577000,1682466999999.999756,10,1,0.820833,-0.217467,1153,1166,1065,992
181100337,78.707123,105.121307,2.327743,754706650000000.000000,5175094240000000.000000,61.619000,3.577000,1682466999999.999756,10,1,0.820833,-0.217467,1164,1166,1067,992
181140340,78.347252,103.872826,2.342697,754706650000000.000000,5175094240000000.000000,61.619000,3.577000,1682466999999.999756,10,1,0.820833,-0.217467,1169,1166,1065,992
181160570,78.135361,103.020485,2.357002,754706770000000.000000,5175093910000000.000000,61.584000,3.622000,1666279799999.999756,11,1,0.820833,-0.217467,1169,1166,1065,992
181180341,77.903885,102.605896,2.357002,754706770000000.000000,5175093910000000.000000,61.584000,3.622000,1666279799999.999756,11,1,0.820833,-0.217467,1171,1166,1067,992
181200427,77.714844,103.071709,2.371306,754706770000000.000000,5175093910000000.000000,61.584000,3.622000,1666279799999.999756,11,1,0.820833,-0.217467,1180,1169,1068,992
181220341,77.562119,104.019455,2.371306,754706770000000.000000,5175093910000000.000000,61.584000,3.622000,1666279799999.999756,11,1,0.820833,-0.217467,1185,1169,1072,992
181240536,77.420509,104.717880,2.384961,754706880000000.000000,5175093630000000.000000,61.575000,3.169000,1650160199999.999756,11,1,0.820833,-0.217467,1188,1169,1075,992
181260339,77.263611,105.036255,2.384961,754706880000000.000000,5175093630000000.000000,61.575000,3.169000,1650160199999.999756,11,1,0.820833,-0.217467,1190,1169,1076,992
181280443,77.107773,105.612167,2.396664,754706880000000.000000,5175093630000000.000000,61.575000,3.169000,1650160199999.999756,11,1,0.820833,-0.217467,1190,1169,1076,993
181300342,76.975731,106.915886,2.396664,754706880000000.000000,5175093630000000.000000,61.575000,3.169000,1650160199999.999756,11,1,0.820833,-0.217467,1193,1166,1075,992
181320435,76.897057,108.602417,2.409669,754706880000000.000000,5175093630000000.000000,61.575000,3.169000,1650160199999.999756,11,1,0.820833,-0.217467,1193,1166,1078,992
181340343,76.819084,110.156982,2.409669,754706880000000.000000,5175093630000000.000000,61.575000,3.169000,1650160199999.999756,11,1,0.820833,-0.217467,1201,1169,1080,992
181360573,76.687897,111.324287,2.423973,754707000000000.000000,5175093330000000.000000,61.619000,3.572000,1661112799999.999756,11,1,0.820833,-0.217467,1209,1182,1075,992
181380340,76.680061,112.144897,2.423973,754707000000000.000000,5175093330000000.000000,61.619000,3.572000,1661112799999.999756,11,1,0.820833,-0.217467,1219,1196,1075,992
181400424,76.714272,112.788628,2.440879,754707000000000.000000,5175093330000000.000000,61.619000,3.572000,1661112799999.999756,11,1,0.820833,-0.217467,1230,1208,1076,992
181420342,76.705139,113.447838,2.440879,754707000000000.000000,5175093330000000.000000,61.619000,3.572000,1661112799999.999756,11,1,0.820833,-0.217467,1240,1227,1073,992
181440404,76.881279,113.782112,2.458434,754707000000000.000000,5175093330000000.000000,61.619000,3.572000,1661112799999.999756,11,1,0.820833,-0.217467,1244,1241,1068,992
181460339,77.067749,113.443039,2.458434,754707000000000.000000,5175093330000000.000000,61.619000,3.572000,1661112799999.999756,11,1,0.820833,-0.217467,1244,1251,1067,992
181480576,77.224243,112.764778,2.475990,754707030000000.000000,5175093010000000.000000,61.660000,3.630000,1720617599999.999756,11,1,0.820833,-0.217467,1243,1254,1068,992
181500342,77.570580,112.190536,2.475990,754707030000000.000000,5175093010000000.000000,61.660000,3.630000,1720617599999.999756,11,1,0.820833,-0.217467,1244,1246,1070,992
181520432,77.904411,111.645782,2.490945,754707030000000.000000,5175093010000000.000000,61.660000,3.630000,1720617599999.999756,11,1,0.820833,-0.217467,1244,1228,1068,992
181560577,79.041534,111.860886,2.505249,754707160000000.000000,5175092780000000.000000,61.647000,2.803000,1667863599999.999756,11,1,0.820833,-0.217467,1246,1222,1067,992
181580339,79.510490,112.195068,2.505249,754707160000000.000000,5175092780000000.000000,61.647000,2.803000,1667863599999.999756,11,1,0.820833,-0.217467,1257,1230,1068,992
181600429,80.011902,112.599098,2.518903,754707160000000.000000,5175092780000000.000000,61.647000,2.803000,1667863599999.999756,11,1,0.820833,-0.217467,1273,1233,1067,992
181620341,80.725533,113.204834,2.518903,754707160000000.000000,5175092780000000.000000,61.647000,2.803000,1667863599999.999756,11,1,0.820833,-0.217467,1278,1230,1065,992
181640403,81.174866,114.046684,2.533208,754707160000000.000000,5175092780000000.000000,61.647000,2.803000,1667863599999.999756,11,1,0.820833,-0.217467,1275,1220,1067,992
181660338,81.647308,115.024178,2.533208,754707160000000.000000,5175092780000000.000000,61.647000,2.803000,1667863599999.999756,11,1,0.820833,-0.217467,1275,1214,1067,992
181680575,82.165123,115.992294,2.548813,754707300000000.000000,5175092540000000.000000,61.687000,2.857000,1628481399999.999756,11,1,0.820833,-0.217467,1280,1222,1065,992
181700339,82.446106,116.806435,2.548813,754707300000000.000000,5175092540000000.000000,61.687000,2.857000,1628481399999.999756,11,1,0.820833,-0.217467,1294,1227,1067,992
181720431,82.778870,117.376053,2.565068,754707300000000.000000,5175092540000000.000000,61.687000,2.857000,1628481399999.999756,11,1,0.820833,-0.217467,1318,1228,1067,992
181740342,83.178963,117.885117,2.565068,754707300000000.000000,5175092540000000.000000,61.687000,2.857000,1628481399999.999756,11,1,0.820833,-0.217467,1331,1222,1067,992
181760570,83.314499,118.641541,2.581323,754707410000000.000000,5175092280000000.000000,61.759000,3.167000,1652813999999.999756,10,1,0.820833,-0.217467,1337,1211,1070,992
181780337,83.586609,119.442398,2.581323,754707410000000.000000,5175092280000000.000000,61.759000,3.167000,1652813999999.999756,10,1,0.820833,-0.217467,1337,1206,1078,992
181800427,83.826790,120.090225,2.598229,754707410000000.000000,5175092280000000.000000,61.759000,3.167000,1652813999999.999756,10,1,0.820833,-0.217467,1337,1211,1081,992
181820340,83.971687,120.749992,2.598229,754707410000000.000000,5175092280000000.000000,61.759000,3.167000,1652813999999.999756,10,1,0.820833,-0.217467,1347,1219,1081,992
181840403,84.286629,122.112602,2.616435,754707410000000.000000,5175092280000000.000000,61.759000,3.167000,1652813999999.999756,10,1,0.820833,-0.217467,1358,1217,1078,992
181860338,84.660240,124.498642,2.616435,754707410000000.000000,5175092280000000.000000,61.759000,3.167000,1652813999999.999756,10,1,0.820833,-0.217467,1366,1214,1080,992
181880574,85.045471,127.403671,2.636591,754707490000000.000000,5175091920000000.000000,61.716000,3.807000,1680886599999.999756,11,1,0.820833,-0.217467,1364,1203,1084,992
181900339,85.576668,130.515991,2.636591,754707490000000.000000,5175091920000000.000000,61.716000,3.807000,1680886599999.999756,11,1,0.820833,-0.217467,1366,1198,1086,992
181920435,86.204674,133.976807,2.664550,754707490000000.000000,5175091920000000.000000,61.716000,3.807000,1680886599999.999756,11,1,0.820833,-0.217467,1369,1200,1092,992
181940336,87.061226,137.855942,2.664550,754707490000000.000000,5175091920000000.000000,61.716000,3.807000,1680886599999.999756,11,1,0.820833,-0.217467,1379,1198,1094,992
181980341,89.276199,145.637421,2.704863,754707610000000.000000,5175091600000000.000000,62.142000,4.705000,1719183399999.999756,11,1,0.820833,-0.217467,1395,1196,1091,992
182000423,90.012878,147.409531,2.758830,754707610000000.000000,5175091600000000.000000,62.142000,4.705000,1719183399999.999756,11,1,0.820833,-0.217467,1398,1193,1091,992
182020340,91.235718,148.993164,2.758830,754707610000000.000000,5175091600000000.000000,62.142000,4.705000,1719183399999.999756,11,1,0.820833,-0.217467,1403,1196,1094,992
182040433,92.457413,152.717300,2.822550,754707610000000.000000,5175091600000000.000000,62.142000,4.705000,1719183399999.999756,11,1,0.820833,-0.217467,1408,1198,1104,992
182060340,93.637932,156.811127,2.822550,754707610000000.000000,5175091600000000.000000,62.142000,4.705000,1719183399999.999756,11,1,0.820833,-0.217467,1414,1196,1110,992
182080571,94.970459,158.867310,2.897974,754707650000000.000000,5175091180000000.000000,62.215000,4.705000,1719183399999.999756,0,1,0.820833,-0.217467,1422,1195,1116,992
182100338,95.749908,159.618195,2.897974,754707650000000.000000,5175091180000000.000000,62.215000,4.705000,1719183399999.999756,0,1,0.820833,-0.217467,1428,1190,1120,992
182120433,96.551682,161.037857,2.978600,754707650000000.000000,5175091180000000.000000,62.215000,4.705000,1719183399999.999756,0,1,0.820833,-0.217467,1433,1188,1123,992
182140342,97.693039,163.663986,2.978600,754707650000000.000000,5175091180000000.000000,62.215000,4.705000,1719183399999.999756,0,1,0.820833,-0.217467,1435,1185,1126,992
182160572,98.541023,165.767410,3.065728,754708180000000.000000,5175091080000000.000000,62.497000,3.644000,1662883999999.999756,10,1,0.820833,-0.217467,1433,1174,1129,992
182180342,98.994453,166.359543,3.065728,754708180000000.000000,5175091080000000.000000,62.497000,3.644000,1662883999999.999756,10,1,0.820833,-0.217467,1435,1166,1140,992
182200425,99.369347,166.533478,3.155457,754708180000000.000000,5175091080000000.000000,62.497000,3.644000,1662883999999.999756,10,1,0.820833,-0.217467,1441,1150,1156,1001
182220339,99.739227,167.668961,3.155457,754708180000000.000000,5175091080000000.000000,62.497000,3.644000,1662883999999.999756,10,1,0.820833,-0.217467,1444,1121,1166,996
182240535,100.110680,169.454330,3.248436,754708090000000.000000,5175090800000000.000000,62.745000,3.031000,1683105199999.999756,10,1,0.820833,-0.217467,1443,1089,1164,992
182260342,100.340492,170.470261,3.248436,754708090000000.000000,5175090800000000.000000,62.745000,3.031000,1683105199999.999756,10,1,0.820833,-0.217467,1443,1088,1161,992
182280442,100.222961,170.548767,3.344667,754708090000000.000000,5175090800000000.000000,62.745000,3.031000,1683105199999.999756,10,1,0.820833,-0.217467,1446,1097,1158,992
182300343,100.004578,170.845215,3.344667,754708090000000.000000,5175090800000000.000000,62.745000,3.031000,1683105199999.999756,10,1,0.820833,-0.217467,1462,1078,1155,993
182320431,99.854080,172.066071,3.442848,754708090000000.000000,5175090800000000.000000,62.745000,3.031000,1683105199999.999756,10,1,0.820833,-0.217467,1464,980,1161,992
182340343,99.595352,173.397568,3.442848,754708090000000.000000,5175090800000000.000000,62.745000,3.031000,1683105199999.999756,10,1,0.820833,-0.217467,1464,866,1168,992
182360574,99.134308,173.971008,3.546231,754708170000000.000000,5175090660000000.000000,62.923000,2.263000,1679971599999.999756,11,1,0.820833,-0.217467,1464,792,1169,996
182400430,97.787086,174.731949,3.649614,754708170000000.000000,5175090660000000.000000,62.923000,2.263000,1679971599999.999756,11,1,0.820833,-0.217467,1464,788,1164,1003
182420338,97.091202,175.939636,3.649614,754708170000000.000000,5175090660000000.000000,62.923000,2.263000,1679971599999.999756,11,1,0.820833,-0.217467,1470,836,1163,991
182440538,96.321838,176.876968,3.754948,754707780000000.000000,5175090510000000.000000,63.164000,2.200000,1934156199999.999756,11,1,0.820833,-0.217467,1472,812,1158,960
182460339,95.265663,177.211441,3.754948,754707780000000.000000,5175090510000000.000000,63.164000,2.200000,1934156199999.999756,11,1,0.820833,-0.217467,1470,727,1158,941
182480424,94.144524,177.473160,3.862232,754707780000000.000000,5175090510000000.000000,63.164000,2.200000,1934156199999.999756,11,1,0.820833,-0.217467,1467,674,1158,944
182500341,93.015984,178.214127,3.862232,754707780000000.000000,5175090510000000.000000,63.164000,2.200000,1934156199999.999756,11,1,0.820833,-0.217467,1467,637,1163,986
182520436,91.775673,179.146606,3.972767,754707780000000.000000,5175090510000000.000000,63.164000,2.200000,1934156199999.999756,11,1,0.820833,-0.217467,1470,620,1174,992
182540341,90.369255,179.699570,3.972767,754707780000000.000000,5175090510000000.000000,63.164000,2.200000,1934156199999.999756,11,1,0.820833,-0.217467,1470,599,1177,992
182560574,88.749191,179.843155,4.086554,754707330000000.000000,5175090240000000.000000,63.359000,3.309000,2110916799999.999756,11,1,0.820833,-0.217467,1467,583,1169,989
182580344,86.984390,180.124146,4.086554,754707330000000.000000,5175090240000000.000000,63.359000,3.309000,2110916799999.999756,11,1,0.820833,-0.217467,1467,583,1158,986
182600430,85.179131,180.741516,4.202291,754707330000000.000000,5175090240000000.000000,63.359000,3.309000,2110916799999.999756,11,1,0.820833,-0.217467,1467,589,1155,989
182620338,83.254837,181.263275,4.202291,754707330000000.000000,5175090240000000.000000,63.359000,3.309000,2110916799999.999756,11,1,0.820833,-0.217467,1467,591,1156,992
182640557,81.159981,181.384003,4.319978,754706880000000.000000,5175089970000000.000000,63.458000,3.718000,2181982199999.999756,11,1,0.820833,-0.217467,1467,584,1163,992
182660343,78.930252,181.343491,4.319978,754706880000000.000000,5175089970000000.000000,63.458000,3.718000,2181982199999.999756,11,1,0.820833,-0.217467,1467,575,1161,992
182680444,76.685776,181.537491,4.438966,754706880000000.000000,5175089970000000.000000,63.458000,3.718000,2181982199999.999756,11,1,0.820833,-0.217467,1467,554,1152,992
182700339,74.411087,181.913742,4.438966,754706880000000.000000,5175089970000000.000000,63.458000,3.718000,2181982199999.999756,11,1,0.820833,-0.217467,1470,543,1140,992
182720434,72.012642,182.025650,4.558604,754706880000000.000000,5175089970000000.000000,63.458000,3.718000,2181982199999.999756,11,1,0.820833,-0.217467,1478,544,1134,992
182740339,69.579521,181.815140,4.558604,754706880000000.000000,5175089970000000.000000,63.458000,3.718000,2181982199999.999756,11,1,0.820833,-0.217467,1483,544,1126,993
182760576,67.143555,181.640594,4.678893,754706600000000.000000,5175089660000000.000000,63.657000,3.771000,2171082399999.999756,11,1,0.820833,-0.217467,1480,548,1115,993
182780341,64.742668,181.705811,4.678893,754706600000000.000000,5175089660000000.000000,63.657000,3.771000,2171082399999.999756,11,1,0.820833,-0.217467,1480,562,1105,992
182820344,60.018364,181.713135,4.799831,754706600000000.000000,5175089660000000.000000,63.657000,3.771000,2171082399999.999756,11,1,0.820833,-0.217467,1494,567,1084,992
182840541,57.624470,181.406006,4.920770,754706310000000.000000,5175089420000000.000000,63.863000,3.558000,2165762199999.999756,11,1,0.820833,-0.217467,1496,556,1067,992
182860341,55.283012,181.195618,4.920770,754706310000000.000000,5175089420000000.000000,63.863000,3.558000,2165762199999.999756,11,1,0.820833,-0.217467,1494,536,1054,991
182880443,52.975006,181.162201,5.041058,754706310000000.000000,5175089420000000.000000,63.863000,3.558000,2165762199999.999756,11,1,0.820833,-0.217467,1494,516,1028,992
182900344,50.670025,181.026794,5.041058,754706310000000.000000,5175089420000000.000000,63.863000,3.558000,2165762199999.999756,11,1,0.820833,-0.217467,1494,496,1014,992
182920435,48.370510,180.643494,5.163297,754706310000000.000000,5175089420000000.000000,63.863000,3.558000,2165762199999.999756,11,1,0.820833,-0.217467,1494,472,1012,992
182940341,46.120045,180.175949,5.163297,754706310000000.000000,5175089420000000.000000,63.863000,3.558000,2165762199999.999756,11,1,0.820833,-0.217467,1492,456,1012,992
182960575,43.918732,179.843842,5.286186,754706040000000.000000,5175089230000000.000000,64.086000,3.161000,2168144599999.999756,11,1,0.820833,-0.217467,1494,442,1012,976
182980341,41.736294,179.624405,5.286186,754706040000000.000000,5175089230000000.000000,64.086000,3.161000,2168144599999.999756,11,1,0.820833,-0.217467,1496,428,996,965
183000426,39.593239,179.251801,5.414277,754706040000000.000000,5175089230000000.000000,64.086000,3.161000,2168144599999.999756,11,1,0.820833,-0.217467,1496,413,978,970
183020341,37.474594,178.695526,5.414277,754706040000000.000000,5175089230000000.000000,64.086000,3.161000,2168144599999.999756,11,1,0.820833,-0.217467,1496,408,957,981
183040416,35.428852,178.151535,5.541068,754706040000000.000000,5175089230000000.000000,64.086000,3.161000,2168144599999.999756,11,1,0.820833,-0.217467,1494,415,951,986
183060344,33.432968,177.718018,5.541068,754706040000000.000000,5175089230000000.000000,64.086000,3.161000,2168144599999.999756,11,1,0.820833,-0.217467,1492,436,949,989
183080577,31.469894,177.230362,5.667208,754705940000000.000000,5175089060000000.000000,64.347000,2.471000,2128611999999.999756,11,1,0.820833,-0.217467,1476,460,940,989
183100345,29.595724,176.588211,5.667208,754705940000000.000000,5175089060000000.000000,64.347000,2.471000,2128611999999.999756,11,1,0.820833,-0.217467,1454,482,904,984
183120434,27.814491,175.880341,5.792698,754705940000000.000000,5175089060000000.000000,64.347000,2.471000,2128611999999.999756,11,1,0.820833,-0.217467,1443,503,858,972
183140341,26.107338,175.269379,5.792698,754705940000000.000000,5175089060000000.000000,64.347000,2.471000,2128611999999.999756,11,1,0.820833,-0.217467,1438,536,834,972
183160578,24.457613,174.794266,5.918188,754705860000000.000000,5175088850000000.000000,64.554000,2.290000,2059972199999.999756,11,1,0.820833,-0.217467,1432,568,836,976
183180341,22.884600,174.209152,5.918188,754705860000000.000000,5175088850000000.000000,64.554000,2.290000,2059972199999.999756,11,1,0.820833,-0.217467,1433,596,845,988
183200428,21.402405,173.501770,6.045629,754705860000000.000000,5175088850000000.000000,64.554000,2.290000,2059972199999.999756,11,1,0.820833,-0.217467,1428,600,834,981
183240564,18.672972,172.271805,6.173069,754705760000000.000000,5175088670000000.000000,64.759000,2.221000,2026419799999.999756,11,1,0.820833,-0.217467,1419,588,764,957
183260344,17.380310,171.757690,6.173069,754705760000000.000000,5175088670000000.000000,64.759000,2.221000,2026419799999.999756,11,1,0.820833,-0.217467,1408,583,746,954
183280437,16.176731,171.108398,6.301160,754705760000000.000000,5175088670000000.000000,64.759000,2.221000,2026419799999.999756,11,1,0.820833,-0.217467,1403,576,743,959
183300340,15.084788,170.378983,6.301160,754705760000000.000000,5175088670000000.000000,64.759000,2.221000,2026419799999.999756,11,1,0.820833,-0.217467,1400,567,754,948
183320432,14.097955,169.688568,6.428600,754705760000000.000000,5175088670000000.000000,64.759000,2.221000,2026419799999.999756,11,1,0.820833,-0.217467,1401,544,773,924
183340340,13.179090,169.072769,6.428600,754705760000000.000000,5175088670000000.000000,64.759000,2.221000,2026419799999.999756,11,1,0.820833,-0.217467,1401,511,784,904
183360571,12.341117,168.381317,6.555391,754705600000000.000000,5175088450000000.000000,64.982000,2.508000,2033954599999.999756,11,1,0.820833,-0.217467,1412,487,786,903
183380323,11.617793,167.592392,6.555391,754705600000000.000000,5175088450000000.000000,64.982000,2.508000,2033954599999.999756,11,1,0.820833,-0.217467,1427,480,789,914
183400428,11.002868,166.788147,6.682181,754705600000000.000000,5175088450000000.000000,64.982000,2.508000,2033954599999.999756,11,1,0.820833,-0.217467,1438,484,799,924
183420342,10.449300,166.047287,6.682181,754705600000000.000000,5175088450000000.000000,64.982000,2.508000,2033954599999.999756,11,1,0.820833,-0.217467,1440,487,805,920
183440537,9.995521,165.335007,6.807672,754705500000000.000000,5175088180000000.000000,65.212000,2.723000,2012685799999.999756,10,1,0.820833,-0.217467,1440,488,815,906
183460339,9.602842,164.584885,6.807672,754705500000000.000000,5175088180000000.000000,65.212000,2.723000,2012685799999.999756,10,1,0.820833,-0.217467,1438,493,829,896
183480444,9.251689,163.806122,6.933812,754705500000000.000000,5175088180000000.000000,65.212000,2.723000,2012685799999.999756,10,1,0.820833,-0.217467,1433,503,844,900
183500340,8.967667,163.029053,6.933812,754705500000000.000000,5175088180000000.000000,65.212000,2.723000,2012685799999.999756,10,1,0.820833,-0.217467,1422,511,821,908
183520433,8.706939,162.315491,7.063203,754705500000000.000000,5175088180000000.000000,65.212000,2.723000,2012685799999.999756,10,1,0.820833,-0.217467,1414,512,788,896
183540343,8.456576,161.642380,7.063203,754705500000000.000000,5175088180000000.000000,65.212000,2.723000,2012685799999.999756,10,1,0.820833,-0.217467,1406,519,773,890
183560574,8.265962,160.935318,7.193244,754705480000000.000000,5175087900000000.000000,65.522000,2.867000,1964057199999.999756,10,1,0.820833,-0.217467,1398,524,780,890
183580343,8.097259,160.250565,7.193244,754705480000000.000000,5175087900000000.000000,65.522000,2.867000,1964057199999.999756,10,1,0.820833,-0.217467,1390,519,797,888
183600428,7.938599,159.609940,7.322636,754705480000000.000000,5175087900000000.000000,65.522000,2.867000,1964057199999.999756,10,1,0.820833,-0.217467,1393,500,813,884
183620344,7.800953,159.009705,7.322636,754705480000000.000000,5175087900000000.000000,65.522000,2.867000,1964057199999.999756,10,1,0.820833,-0.217467,1393,477,816,884
183660341,7.578878,157.767197,7.451377,754705450000000.000000,5175087620000000.000000,65.817000,2.983000,1927956199999.999756,10,1,0.820833,-0.217467,1388,476,829,885
183680436,7.511876,157.194427,7.581418,754705450000000.000000,5175087620000000.000000,65.817000,2.983000,1927956199999.999756,10,1,0.820833,-0.217467,1385,503,850,888
183700339,7.468308,156.680740,7.581418,754705450000000.000000,5175087620000000.000000,65.817000,2.983000,1927956199999.999756,10,1,0.820833,-0.217467,1376,544,884,900
183720434,7.458625,156.166641,7.712760,754705450000000.000000,5175087620000000.000000,65.817000,2.983000,1927956199999.999756,10,1,0.820833,-0.217467,1348,596,927,904
183740340,7.460878,155.635956,7.712760,754705450000000.000000,5175087620000000.000000,65.817000,2.983000,1927956199999.999756,10,1,0.820833,-0.217467,1294,656,972,896
183760571,7.487107,155.125198,7.844102,754705330000000.000000,5175087300000000.000000,66.116000,3.287000,1936945999999.999756,10,1,0.820833,-0.217467,1248,724,1008,884
183780342,7.540794,154.667343,7.844102,754705330000000.000000,5175087300000000.000000,66.116000,3.287000,1936945999999.999756,10,1,0.820833,-0.217467,1240,762,1020,845
183800429,7.620800,154.252853,7.976744,754705330000000.000000,5175087300000000.000000,66.116000,3.287000,1936945999999.999756,10,1,0.820833,-0.217467,1246,768,1009,800
183820341,7.742123,153.841797,7.976744,754705330000000.000000,5175087300000000.000000,66.116000,3.287000,1936945999999.999756,10,1,0.820833,-0.217467,1265,784,993,772
183840532,7.881904,153.446823,8.110037,754705270000000.000000,5175087040000000.000000,66.425000,3.199000,1926694599999.999756,10,1,0.820833,-0.217467,1278,847,1003,776
183860341,8.052933,153.099289,8.110037,754705270000000.000000,5175087040000000.000000,66.425000,3.199000,1926694599999.999756,10,1,0.820833,-0.217467,1283,912,1036,796
183880444,8.264338,152.797562,8.243329,754705270000000.000000,5175087040000000.000000,66.425000,3.199000,1926694599999.999756,10,1,0.820833,-0.217467,1284,943,1054,784
183900343,8.496537,152.547882,8.243329,754705270000000.000000,5175087040000000.000000,66.425000,3.199000,1926694599999.999756,10,1,0.820833,-0.217467,1283,952,1057,768
183920404,8.757529,152.314804,8.376622,754705270000000.000000,5175087040000000.000000,66.425000,3.199000,1926694599999.999756,10,1,0.820833,-0.217467,1283,944,1052,757
183940343,9.042700,152.114883,8.376622,754705270000000.000000,5175087040000000.000000,66.425000,3.199000,1926694599999.999756,10,1,0.820833,-0.217467,1291,932,1052,768
183960578,9.365518,151.955566,8.509264,754705250000000.000000,5175086820000000.000000,66.677000,2.864000,1900199799999.999756,10,1,0.820833,-0.217467,1310,912,1054,773
183980337,9.714045,151.811996,8.509264,754705250000000.000000,5175086820000000.000000,66.677000,2.864000,1900199799999.999756,10,1,0.820833,-0.217467,1342,888,1046,772
184000426,10.091118,151.698730,8.641256,754705250000000.000000,5175086820000000.000000,66.677000,2.864000,1900199799999.999756,10,1,0.820833,-0.217467,1376,839,1030,754
184020338,10.504639,151.620087,8.641256,754705250000000.000000,5175086820000000.000000,66.677000,2.864000,1900199799999.999756,10,1,0.820833,-0.217467,1406,764,1009,738
184040567,10.930180,151.598434,8.773249,754705120000000.000000,5175086600000000.000000,66.905000,2.762000,1924533199999.999756,10,1,0.820833,-0.217467,1425,653,984,730
184080442,11.875909,151.618576,8.905240,754705120000000.000000,5175086600000000.000000,66.905000,2.762000,1924533199999.999756,10,1,0.820833,-0.217467,1454,496,959,757
184100342,12.429325,151.612381,8.905240,754705120000000.000000,5175086600000000.000000,66.905000,2.762000,1924533199999.999756,10,1,0.820833,-0.217467,1470,480,972,756
184120407,13.026400,151.608032,9.037883,754705120000000.000000,5175086600000000.000000,66.905000,2.762000,1924533199999.999756,10,1,0.820833,-0.217467,1480,461,983,752
184140343,13.687223,151.605789,9.037883,754705120000000.000000,5175086600000000.000000,66.905000,2.762000,1924533199999.999756,10,1,0.820833,-0.217467,1491,437,976,759
184160577,14.385145,151.607895,9.169875,754704990000000.000000,5175086310000000.000000,67.133000,2.965000,1942918399999.999756,10,1,0.820833,-0.217467,1507,420,967,764
184180340,15.144413,151.629379,9.169875,754704990000000.000000,5175086310000000.000000,67.133000,2.965000,1942918399999.999756,10,1,0.820833,-0.217467,1508,412,968,768
184200427,15.931612,151.653992,9.302517,754704990000000.000000,5175086310000000.000000,67.133000,2.965000,1942918399999.999756,10,1,0.820833,-0.217467,1507,408,976,772
184220337,16.748964,151.730316,9.302517,754704990000000.000000,5175086310000000.000000,67.133000,2.965000,1942918399999.999756,10,1,0.820833,-0.217467,1507,408,984,767
184240544,17.569683,151.845306,9.436460,754704820000000.000000,5175085980000000.000000,67.539000,3.457000,1970953199999.999756,10,1,0.820833,-0.217467,1508,404,983,760
184260342,18.434254,151.975830,9.436460,754704820000000.000000,5175085980000000.000000,67.539000,3.457000,1970953199999.999756,10,1,0.820833,-0.217467,1507,402,978,754
184280433,19.327118,152.131454,9.571703,754704820000000.000000,5175085980000000.000000,67.539000,3.457000,1970953199999.999756,10,1,0.820833,-0.217467,1508,404,975,749
184300343,20.240438,152.307175,9.571703,754704820000000.000000,5175085980000000.000000,67.539000,3.457000,1970953199999.999756,10,1,0.820833,-0.217467,1507,402,978,749
184320429,21.207514,152.509232,9.706946,754704820000000.000000,5175085980000000.000000,67.539000,3.457000,1970953199999.999756,10,1,0.820833,-0.217467,1510,400,989,744
184340342,22.175760,152.729660,9.706946,754704820000000.000000,5175085980000000.000000,67.539000,3.457000,1970953199999.999756,10,1,0.820833,-0.217467,1518,396,1000,744
184360573,23.164541,152.962006,9.840889,754704690000000.000000,5175085680000000.000000,67.946000,3.594000,1978190799999.999756,10,1,0.820833,-0.217467,1521,396,1004,743
184380340,24.125196,153.200989,9.840889,754704690000000.000000,5175085680000000.000000,67.946000,3.594000,1978190799999.999756,10,1,0.820833,-0.217467,1521,392,1006,744
184400427,25.145624,153.469040,9.974181,754704690000000.000000,5175085680000000.000000,67.946000,3.594000,1978190799999.999756,10,1,0.820833,-0.217467,1518,391,1003,744
184420342,26.210358,153.729324,9.974181,754704690000000.000000,5175085680000000.000000,67.946000,3.594000,1978190799999.999756,10,1,0.820833,-0.217467,1518,388,995,740
184440538,27.266384,154.005478,10.108124,754704560000000.000000,5175085380000000.000000,68.264000,3.546000,1973881599999.999756,10,1,0.820833,-0.217467,1508,391,989,736
184460339,28.292694,154.284073,10.108124,754704560000000.000000,5175085380000000.000000,68.264000,3.546000,1973881599999.999756,10,1,0.820833,-0.217467,1499,388,986,744
184500338,30.297840,154.824524,10.242067,754704560000000.000000,5175085380000000.000000,68.264000,3.546000,1973881599999.999756,10,1,0.820833,-0.217467,1480,378,1001,754
184520426,31.301674,155.078430,10.376010,754704560000000.000000,5175085380000000.000000,68.264000,3.546000,1973881599999.999756,10,1,0.820833,-0.217467,1472,372,1008,757
184540339,32.254372,155.359100,10.376010,754704560000000.000000,5175085380000000.000000,68.264000,3.546000,1973881599999.999756,10,1,0.820833,-0.217467,1459,365,1012,764
184560575,33.219337,155.624863,10.509302,754704380000000.000000,5175085000000000.000000,68.676000,4.008000,1973055199999.999756,10,1,0.820833,-0.217467,1446,362,1020,773
184580342,34.143284,155.922134,10.509302,754704380000000.000000,5175085000000000.000000,68.676000,4.008000,1973055199999.999756,10,1,0.820833,-0.217467,1430,362,1041,786
184600425,35.095650,156.201447,10.641294,754704380000000.000000,5175085000000000.000000,68.676000,4.008000,1973055199999.999756,10,1,0.820833,-0.217467,1419,362,1067,796
184620339,36.019451,156.492508,10.641294,754704380000000.000000,5175085000000000.000000,68.676000,4.008000,1973055199999.999756,10,1,0.820833,-0.217467,1420,362,1072,797
184640532,36.943867,156.787262,10.771336,754704240000000.000000,5175084700000000.000000,68.989000,3.734000,1976148999999.999756,10,1,0.820833,-0.217467,1422,362,1083,796
184660339,37.848633,157.084076,10.771336,754704240000000.000000,5175084700000000.000000,68.989000,3.734000,1976148999999.999756,10,1,0.820833,-0.217467,1430,362,1104,794
184680441,38.709106,157.403564,10.900077,754704240000000.000000,5175084700000000.000000,68.989000,3.734000,1976148999999.999756,10,1,0.820833,-0.217467,1436,362,1140,796
184700343,39.565704,157.697601,10.900077,754704240000000.000000,5175084700000000.000000,68.989000,3.734000,1976148999999.999756,10,1,0.820833,-0.217467,1443,362,1171,800
184720430,40.393093,157.992111,11.028168,754704240000000.000000,5175084700000000.000000,68.989000,3.734000,1976148999999.999756,10,1,0.820833,-0.217467,1448,362,1184,805
184740339,41.205383,158.286362,11.028168,754704240000000.000000,5175084700000000.000000,68.989000,3.734000,1976148999999.999756,10,1,0.820833,-0.217467,1454,362,1201,797
184760575,41.950779,158.590302,11.155608,754704110000000.000000,5175084450000000.000000,69.317000,3.300000,1980349999999.999756,10,1,0.820833,-0.217467,1464,362,1217,792
184780338,42.661522,158.888214,11.155608,754704110000000.000000,5175084450000000.000000,69.317000,3.300000,1980349999999.999756,10,1,0.820833,-0.217467,1478,362,1216,788
184800427,43.365917,159.138580,11.282399,754704110000000.000000,5175084450000000.000000,69.317000,3.300000,1980349999999.999756,10,1,0.820833,-0.217467,1489,362,1203,792
184820341,44.003429,159.422302,11.282399,754704110000000.000000,5175084450000000.000000,69.317000,3.300000,1980349999999.999756,10,1,0.820833,-0.217467,1491,362,1198,792
184840533,44.643597,159.695084,11.407888,754703990000000.000000,5175084200000000.000000,69.835000,3.349000,1995065599999.999756,10,1,0.820833,-0.217467,1491,362,1201,792
184860339,45.244404,159.976944,11.407888,754703990000000.000000,5175084200000000.000000,69.835000,3.349000,1995065599999.999756,10,1,0.820833,-0.217467,1494,362,1211,789
184880440,45.808460,160.250015,11.535979,754703990000000.000000,5175084200000000.000000,69.835000,3.349000,1995065599999.999756,10,1,0.820833,-0.217467,1499,362,1230,788
184920427,46.868877,160.875122,11.662770,754703990000000.000000,5175084200000000.000000,69.835000,3.349000,1995065599999.999756,10,1,0.820833,-0.217467,1510,362,1243,788
184940344,47.380867,161.204224,11.662770,754703990000000.000000,5175084200000000.000000,69.835000,3.349000,1995065599999.999756,10,1,0.820833,-0.217467,1521,362,1233,791
184960570,47.861992,161.548767,11.788910,754703880000000.000000,5175083940000000.000000,70.210000,3.193000,1984985399999.999756,10,1,0.820833,-0.217467,1539,362,1212,788
184980338,48.353596,161.885803,11.788910,754703880000000.000000,5175083940000000.000000,70.210000,3.193000,1984985399999.999756,10,1,0.820833,-0.217467,1547,362,1203,786
185000429,48.783974,162.253418,11.915051,754703880000000.000000,5175083940000000.000000,70.210000,3.193000,1984985399999.999756,10,1,0.820833,-0.217467,1550,362,1195,789
185020338,49.185623,162.618042,11.915051,754703880000000.000000,5175083940000000.000000,70.210000,3.193000,1984985399999.999756,10,1,0.820833,-0.217467,1561,362,1190,792
185040545,49.542046,162.983826,12.041841,754703780000000.000000,5175083650000000.000000,70.532000,3.208000,1962140199999.999756,10,1,0.820833,-0.217467,1585,362,1180,794
185060341,49.863140,163.306824,12.041841,754703780000000.000000,5175083650000000.000000,70.532000,3.208000,1962140199999.999756,10,1,0.820833,-0.217467,1616,362,1171,796
185080441,50.116825,163.653748,12.169282,754703780000000.000000,5175083650000000.000000,70.532000,3.208000,1962140199999.999756,10,1,0.820833,-0.217467,1638,362,1161,796
185100338,50.337051,163.974564,12.169282,754703780000000.000000,5175083650000000.000000,70.532000,3.208000,1962140199999.999756,10,1,0.820833,-0.217467,1652,362,1155,797
185120429,50.499180,164.234238,12.296072,754703780000000.000000,5175083650000000.000000,70.532000,3.208000,1962140199999.999756,10,1,0.820833,-0.217467,1654,362,1153,804
185140343,50.617252,164.443268,12.296072,754703780000000.000000,5175083650000000.000000,70.532000,3.208000,1962140199999.999756,10,1,0.820833,-0.217467,1651,362,1155,808
185160576,50.664902,164.628067,12.420912,754703670000000.000000,5175083360000000.000000,70.751000,3.268000,1939659999999.999756,10,1,0.820833,-0.217467,1638,362,1150,812
185180339,50.667374,164.799011,12.420912,754703670000000.000000,5175083360000000.000000,70.751000,3.268000,1939659999999.999756,10,1,0.820833,-0.217467,1598,362,1153,813
185200429,50.625652,164.919678,12.543151,754703670000000.000000,5175083360000000.000000,70.751000,3.268000,1939659999999.999756,10,1,0.820833,-0.217467,1540,362,1152,816
185220338,50.566269,164.987091,12.543151,754703670000000.000000,5175083360000000.000000,70.751000,3.268000,1939659999999.999756,10,1,0.820833,-0.217467,1500,362,1148,816
185240539,50.471958,165.054169,12.662789,754703540000000.000000,5175083060000000.000000,70.969000,3.265000,1932013599999.999756,10,1,0.820833,-0.217467,1488,362,1144,818
185260341,50.332554,165.167786,12.662789,754703540000000.000000,5175083060000000.000000,70.969000,3.265000,1932013599999.999756,10,1,0.820833,-0.217467,1486,362,1140,816
185280442,50.167027,165.305084,12.778526,754703540000000.000000,5175083060000000.000000,70.969000,3.265000,1932013599999.999756,10,1,0.820833,-0.217467,1475,362,1126,812
185300338,49.967663,165.432907,12.778526,754703540000000.000000,5175083060000000.000000,70.969000,3.265000,1932013599999.999756,10,1,0.820833,-0.217467,1451,362,1110,813
185340341,49.523270,165.844116,12.893613,754703540000000.000000,5175083060000000.000000,70.969000,3.265000,1932013599999.999756,10,1,0.820833,-0.217467,1414,362,1086,816
185360574,49.274479,166.116409,13.008049,754703420000000.000000,5175082810000000.000000,71.309000,3.144000,1939226999999.999756,10,1,0.820833,-0.217467,1411,362,1081,816
185380342,49.019722,166.377518,13.008049,754703420000000.000000,5175082810000000.000000,71.309000,3.144000,1939226999999.999756,10,1,0.820833,-0.217467,1412,362,1075,816
185400426,48.745407,166.638992,13.120535,754703420000000.000000,5175082810000000.000000,71.309000,3.144000,1939226999999.999756,10,1,0.820833,-0.217467,1412,362,1068,816
185420343,48.461609,166.927658,13.120535,754703420000000.000000,5175082810000000.000000,71.309000,3.144000,1939226999999.999756,10,1,0.820833,-0.217467,1422,362,1067,816
185440537,48.164146,167.194595,13.233021,754703310000000.000000,5175082550000000.000000,71.623000,3.084000,1944445399999.999756,10,1,0.820833,-0.217467,1440,362,1067,818
185460343,47.850220,167.420898,13.233021,754703310000000.000000,5175082550000000.000000,71.623000,3.084000,1944445399999.999756,10,1,0.820833,-0.217467,1446,362,1067,820
185480447,47.523373,167.600479,13.343556,754703310000000.000000,5175082550000000.000000,71.623000,3.084000,1944445399999.999756,10,1,0.820833,-0.217467,1444,362,1067,818
185500341,47.184383,167.788895,13.343556,754703310000000.000000,5175082550000000.000000,71.623000,3.084000,1944445399999.999756,10,1,0.820833,-0.217467,1432,362,1067,818
185520429,46.832039,167.982925,13.453442,754703310000000.000000,5175082550000000.000000,71.623000,3.084000,1944445399999.999756,10,1,0.820833,-0.217467,1424,362,1067,820
185540342,46.455795,168.169067,13.453442,754703310000000.000000,5175082550000000.000000,71.623000,3.084000,1944445399999.999756,10,1,0.820833,-0.217467,1420,362,1067,820
185560565,46.067699,168.305893,13.562026,754703230000000.000000,5175082290000000.000000,71.989000,3.081000,1937003399999.999756,10,1,0.820833,-0.217467,1419,362,1067,818
185580342,45.639332,168.445114,13.562026,754703230000000.000000,5175082290000000.000000,71.989000,3.081000,1937003399999.999756,10,1,0.820833,-0.217467,1416,362,1067,815
185600426,45.185986,168.606506,13.667359,754703230000000.000000,5175082290000000.000000,71.989000,3.081000,1937003399999.999756,10,1,0.820833,-0.217467,1416,362,1067,816
185620340,44.739891,168.750778,13.667359,754703230000000.000000,5175082290000000.000000,71.989000,3.081000,1937003399999.999756,10,1,0.820833,-0.217467,1416,362,1068,816
185640565,44.261902,168.872940,13.772693,754703140000000.000000,5175082040000000.000000,72.313000,3.004000,1928655199999.999756,10,1,0.820833,-0.217467,1416,362,1070,818
185660339,43.772530,168.970062,13.772693,754703140000000.000000,5175082040000000.000000,72.313000,3.004000,1928655199999.999756,10,1,0.820833,-0.217467,1416,362,1068,816
185680439,43.254387,169.055130,13.876076,754703140000000.000000,5175082040000000.000000,72.313000,3.004000,1928655199999.999756,10,1,0.820833,-0.217467,1414,362,1067,816
185700341,42.730968,169.139679,13.876076,754703140000000.000000,5175082040000000.000000,72.313000,3.004000,1928655199999.999756,10,1,0.820833,-0.217467,1414,362,1067,816
185720430,42.183430,169.216385,13.979459,754703140000000.000000,5175082040000000.000000,72.313000,3.004000,1928655199999.999756,10,1,0.820833,-0.217467,1414,362,1067,816
185760572,41.048950,169.290695,14.080241,754703070000000.000000,5175081790000000.000000,72.598000,2.843000,1911176399999.999756,11,1,0.820833,-0.217467,1411,362,1065,818
185780341,40.446899,169.333466,14.080241,754703070000000.000000,5175081790000000.000000,72.598000,2.843000,1911176399999.999756,11,1,0.820833,-0.217467,1414,362,1064,818
185800426,39.818813,169.390869,14.180373,754703070000000.000000,5175081790000000.000000,72.598000,2.843000,1911176399999.999756,11,1,0.820833,-0.217467,1412,362,1054,821
185820341,39.180588,169.436249,14.180373,754703070000000.000000,5175081790000000.000000,72.598000,2.843000,1911176399999.999756,11,1,0.820833,-0.217467,1412,362,1035,821
185840556,38.531670,169.445328,14.278554,754702970000000.000000,5175081600000000.000000,72.950000,2.470000,1927364399999.999756,10,1,0.820833,-0.217467,1406,362,1012,824
185860341,37.848640,169.485229,14.278554,754702970000000.000000,5175081600000000.000000,72.950000,2.470000,1927364399999.999756,10,1,0.820833,-0.217467,1401,362,983,832
185880446,37.160873,169.557358,14.376736,754702970000000.000000,5175081600000000.000000,72.950000,2.470000,1927364399999.999756,10,1,0.820833,-0.217467,1403,362,944,832
185900346,36.435814,169.649017,14.376736,754702970000000.000000,5175081600000000.000000,72.950000,2.470000,1927364399999.999756,10,1,0.820833,-0.217467,1401,362,924,829
185920429,35.682064,169.722198,14.473617,754702970000000.000000,5175081600000000.000000,72.950000,2.470000,1927364399999.999756,10,1,0.820833,-0.217467,1403,362,911,829
185940340,34.914932,169.823517,14.473617,754702970000000.000000,5175081600000000.000000,72.950000,2.470000,1927364399999.999756,10,1,0.820833,-0.217467,1401,362,904,829
185960576,34.100044,169.985428,14.571148,754702890000000.000000,5175081380000000.000000,73.269000,2.572000,1928789199999.999756,11,1,0.820833,-0.217467,1401,362,903,829
185980343,33.241352,170.196304,14.571148,754702890000000.000000,5175081380000000.000000,73.269000,2.572000,1928789199999.999756,11,1,0.820833,-0.217467,1400,362,898,824
186000428,32.379143,170.401154,14.665428,754702890000000.000000,5175081380000000.000000,73.269000,2.572000,1928789199999.999756,11,1,0.820833,-0.217467,1393,362,887,815
186020342,31.468636,170.644211,14.665428,754702890000000.000000,5175081380000000.000000,73.269000,2.572000,1928789199999.999756,11,1,0.820833,-0.217467,1390,362,871,810
186040571,30.507421,170.947769,14.760358,754702900000000.000000,5175081170000000.000000,73.533000,2.333000,1861464599999.999756,11,1,0.820833,-0.217467,1387,362,855,807
186060341,29.537712,171.295746,14.760358,754702900000000.000000,5175081170000000.000000,73.533000,2.333000,1861464599999.999756,11,1,0.820833,-0.217467,1387,362,840,804
186080441,28.539482,171.652588,14.855289,754702900000000.000000,5175081170000000.000000,73.533000,2.333000,1861464599999.999756,11,1,0.820833,-0.217467,1385,362,826,792
186100338,27.519821,172.035355,14.855289,754702900000000.000000,5175081170000000.000000,73.533000,2.333000,1861464599999.999756,11,1,0.820833,-0.217467,1382,362,804,788
186120428,26.490713,172.448349,14.950218,754702900000000.000000,5175081170000000.000000,73.533000,2.333000,1861464599999.999756,11,1,0.820833,-0.217467,1382,362,776,783
186140343,25.432814,172.890610,14.950218,754702900000000.000000,5175081170000000.000000,73.533000,2.333000,1861464599999.999756,11,1,0.820833,-0.217467,1382,362,741,780
186180341,23.301567,173.851242,15.042548,754702850000000.000000,5175080890000000.000000,73.784000,2.841000,1839102799999.999756,10,1,0.820833,-0.217467,1401,362,628,764
186200427,22.194683,174.348663,15.132277,754702850000000.000000,5175080890000000.000000,73.784000,2.841000,1839102799999.999756,10,1,0.820833,-0.217467,1425,362,575,760
186220338,21.114191,174.866302,15.132277,754702850000000.000000,5175080890000000.000000,73.784000,2.841000,1839102799999.999756,10,1,0.820833,-0.217467,1435,362,549,764
186240535,20.008947,175.435638,15.221355,754702820000000.000000,5175080620000000.000000,73.973000,2.909000,1809508599999.999756,11,1,0.820833,-0.217467,1435,362,546,760
186260338,18.874592,176.035721,15.221355,754702820000000.000000,5175080620000000.000000,73.973000,2.909000,1809508599999.999756,11,1,0.820833,-0.217467,1433,362,551,756
186280445,17.765879,176.624649,15.307833,754702820000000.000000,5175080620000000.000000,73.973000,2.909000,1809508599999.999756,11,1,0.820833,-0.217467,1435,362,559,757
186300341,16.626770,177.269119,15.307833,754702820000000.000000,5175080620000000.000000,73.973000,2.909000,1809508599999.999756,11,1,0.820833,-0.217467,1435,362,565,760
186320429,15.493423,177.963623,15.393661,754702820000000.000000,5175080620000000.000000,73.973000,2.909000,1809508599999.999756,11,1,0.820833,-0.217467,1436,362,567,759
186340337,14.360765,178.677948,15.393661,754702820000000.000000,5175080620000000.000000,73.973000,2.909000,1809508599999.999756,11,1,0.820833,-0.217467,1440,362,568,760
186360576,13.191945,179.462143,15.480788,754702740000000.000000,5175080310000000.000000,73.993000,3.129000,1796438799999.999756,11,1,0.820833,-0.217467,1446,362,575,765
186380341,12.036616,180.278885,15.480788,754702740000000.000000,5175080310000000.000000,73.993000,3.129000,1796438799999.999756,11,1,0.820833,-0.217467,1457,362,576,773
186400425,10.888519,181.137772,15.567916,754702740000000.000000,5175080310000000.000000,73.993000,3.129000,1796438799999.999756,11,1,0.820833,-0.217467,1470,362,575,781
186420343,9.687443,182.089172,15.567916,754702740000000.000000,5175080310000000.000000,73.993000,3.129000,1796438799999.999756,11,1,0.820833,-0.217467,1475,362,564,784
